[{"timestamprun":1538900557114,"nameofapi":"SMHI","countOfItems":612,"sumOfTempc":6761.399999999997,"sumOfWind":5061.099999999996,"sumOfPressure":618940.5,"sumOfHumidityPer":47759,"sumOfCloudiness":46650,"sumOfHCloudiness":30262.5,"sumOfLCloudiness":32137.5,"sumOfMCloudiness":25662.5,"timeLastUpdate":1538544685,"sumoftempcdiffwithmetno":0,"longlats":[{"name":"Gunton","country":"United Kingdom","lng":2.250475,"lat":52.50044},{"name":"Winterton-on-Sea","country":"United Kingdom","lng":2.114743,"lat":52.917662},{"name":"Ham","country":"United Kingdom","lng":-0.686659,"lat":59.980856},{"name":"Funzie","country":"United Kingdom","lng":0.143026,"lat":60.077975},{"name":"Symbister","country":"United Kingdom","lng":-0.888235,"lat":60.394128},{"name":"Hulland","country":"United Kingdom","lng":-1.094993,"lat":60.807087},{"name":"Valsgarth","country":"United Kingdom","lng":-0.24542,"lat":60.906677},{"name":"Burrafirth","country":"United Kingdom","lng":-1.307153,"lat":61.21972},{"name":"Valsgarth","country":"United Kingdom","lng":-0.447301,"lat":61.320593}]},{"timestamprun":1538900557199,"nameofapi":"SMHI","countOfItems":61956,"sumOfTempc":357340.7999999956,"sumOfWind":290706.4000000011,"sumOfPressure":62295896.99999984,"sumOfHumidityPer":4973928,"sumOfCloudiness":4005362.5,"sumOfHCloudiness":2138000,"sumOfLCloudiness":2623025,"sumOfMCloudiness":1525887.5,"timeLastUpdate":0,"sumoftempcdiffwithmetno":0,"longlats":[{"name":"Gunton","country":"United Kingdom","lng":2.250475,"lat":52.50044},{"name":"IJmuiden aan Zee","country":"Netherlands","lng":3.618685,"lat":52.654589},{"name":"Bergen aan Zee","country":"Netherlands","lng":4.306438,"lat":52.72518},{"name":"Brekkenpolder","country":"Netherlands","lng":5.688592,"lat":52.853269},{"name":"Hoogersmilde","country":"Netherlands","lng":6.382723,"lat":52.910722},{"name":"Kopstukken","country":"Netherlands","lng":7.078708,"lat":52.963753},{"name":"Heetberg","country":"Germany","lng":7.776404,"lat":53.012342},{"name":"Everinghausen","country":"Germany","lng":9.176354,"lat":53.096126},{"name":"Niederhaverbeck","country":"Germany","lng":9.878314,"lat":53.131291},{"name":"Solchstorf","country":"Germany","lng":10.581398,"lat":53.161952},{"name":"Heiddorf","country":"Germany","lng":11.285454,"lat":53.1881},{"name":"Buschhof","country":"Germany","lng":12.695872,"lat":53.226816},{"name":"Küstrinchen","country":"Germany","lng":13.401924,"lat":53.239369},{"name":"Randowhöhe","country":"Germany","lng":14.10833,"lat":53.24738},{"name":"Komorówko","country":"Poland","lng":14.814934,"lat":53.250844},{"name":"Lubiesz","country":"Poland","lng":16.228108,"lat":53.244132},{"name":"Glubczyn","country":"Poland","lng":16.934365,"lat":53.233957},{"name":"Samsieczynek","country":"Poland","lng":17.640193,"lat":53.219242},{"name":"Gzin","country":"Poland","lng":18.345437,"lat":53.199991},{"name":"Nowe Konopaty","country":"Poland","lng":19.753554,"lat":53.147913},{"name":"Sławogóra Nowa","country":"Poland","lng":20.456122,"lat":53.115105},{"name":"Raki","country":"Poland","lng":21.157494,"lat":53.077801},{"name":"Mieczki Ziemaki","country":"Poland","lng":21.857521,"lat":53.036013},{"name":"Ryboły","country":"Poland","lng":23.252955,"lat":52.939051},{"name":"Brovsk","country":"Belarus","lng":23.948075,"lat":52.883912},{"name":"Vilyanuv","country":"Belarus","lng":24.641275,"lat":52.82436},{"name":"Ozerets","country":"Belarus","lng":25.332419,"lat":52.760417},{"name":"Lipsk","country":"Belarus","lng":26.708003,"lat":52.619449},{"name":"Rakhovichi","country":"Belarus","lng":27.392184,"lat":52.542473},{"name":"Winterton-on-Sea","country":"United Kingdom","lng":2.114743,"lat":52.917662},{"name":"De Koog","country":"Netherlands","lng":4.191712,"lat":53.144769},{"name":"De Cocksdorp","country":"Netherlands","lng":4.888882,"lat":53.211707},{"name":"Sint Jacobiparochie","country":"Netherlands","lng":5.588251,"lat":53.274221},{"name":"Zoutkamp","country":"Netherlands","lng":6.289677,"lat":53.332289},{"name":"Wilhelmsfehn","country":"Germany","lng":7.69813,"lat":53.435},{"name":"Abbehauser Wehl","country":"Germany","lng":8.404862,"lat":53.479607},{"name":"Bei der Höhne","country":"Germany","lng":9.113065,"lat":53.51969},{"name":"Mühlenberg","country":"Germany","lng":9.822585,"lat":53.555236},{"name":"Wodenhof","country":"Germany","lng":11.244956,"lat":53.612663},{"name":"Dinnies","country":"Germany","lng":11.957492,"lat":53.634522},{"name":"Neu Basedow","country":"Germany","lng":12.670717,"lat":53.6518},{"name":"Brunn","country":"Germany","lng":13.384469,"lat":53.664491},{"name":"Babigoszcz","country":"Poland","lng":14.812912,"lat":53.676091},{"name":"Smorawina","country":"Poland","lng":15.527278,"lat":53.674996},{"name":"Chłopowo","country":"Poland","lng":16.241524,"lat":53.669305},{"name":"Sokole","country":"Poland","lng":16.955488,"lat":53.65902},{"name":"Oski Piec","country":"Poland","lng":18.381926,"lat":53.624683},{"name":"Pawłowo","country":"Poland","lng":19.094079,"lat":53.600645},{"name":"Grabowo","country":"Poland","lng":19.805308,"lat":53.572039},{"name":"Dąb","country":"Poland","lng":20.515456,"lat":53.538875},{"name":"Rupin","country":"Poland","lng":21.931889,"lat":53.458927},{"name":"Wilamówka","country":"Poland","lng":22.637868,"lat":53.412173},{"name":"Jałówka","country":"Poland","lng":23.342155,"lat":53.360922},{"name":"Zhukevichi","country":"Belarus","lng":24.044603,"lat":53.305192},{"name":"Oshnarovichi","country":"Belarus","lng":25.443406,"lat":53.18038},{"name":"Litva","country":"Belarus","lng":26.139481,"lat":53.111344},{"name":"Vesëlaya","country":"Belarus","lng":26.833157,"lat":53.03792},{"name":"Kirava","country":"Belarus","lng":27.524301,"lat":52.960136},{"name":"De Koog","country":"Netherlands","lng":4.074723,"lat":53.564246},{"name":"West aan Zee","country":"Netherlands","lng":4.779182,"lat":53.631901},{"name":"Schiermonnikoog","country":"Netherlands","lng":6.194774,"lat":53.753782},{"name":"Ostdorf","country":"Germany","lng":6.905614,"lat":53.807962},{"name":"Spiekeroog","country":"Germany","lng":7.618284,"lat":53.857607},{"name":"Neuwerk","country":"Germany","lng":8.33263,"lat":53.902699},{"name":"Störkathen","country":"Germany","lng":9.765728,"lat":53.979155},{"name":"Steenkrütz","country":"Germany","lng":10.484161,"lat":54.010489},{"name":"Hafthagen","country":"Germany","lng":11.203635,"lat":54.037211},{"name":"Neu Hohenfelde","country":"Germany","lng":11.923986,"lat":54.059311},{"name":"Fetten-Vorstadt","country":"Germany","lng":13.366659,"lat":54.08961},{"name":"Koserow","country":"Germany","lng":14.088648,"lat":54.097797},{"name":"Łukęcin","country":"Poland","lng":14.810848,"lat":54.101338},{"name":"Błotnica","country":"Poland","lng":15.533093,"lat":54.100231},{"name":"Dretyń","country":"Poland","lng":16.977043,"lat":54.084078},{"name":"Tuszkowy","country":"Poland","lng":17.698413,"lat":54.069039},{"name":"Czarnocin","country":"Poland","lng":18.419157,"lat":54.049364},{"name":"Lasy","country":"Poland","lng":19.139111,"lat":54.025062},{"name":"Studzianka","country":"Poland","lng":20.57599,"lat":53.962615},{"name":"Szestno","country":"Poland","lng":21.292591,"lat":53.924494},{"name":"Okrągłe","country":"Poland","lng":22.007754,"lat":53.881794},{"name":"Reszki","country":"Poland","lng":22.721321,"lat":53.834532},{"name":"Striyevka","country":"Belarus","lng":24.143054,"lat":53.726392},{"name":"Voloka","country":"Belarus","lng":24.850919,"lat":53.665556},{"name":"Yatsuki","country":"Belarus","lng":25.556587,"lat":53.600238},{"name":"Veletovo","country":"Belarus","lng":26.259914,"lat":53.530464},{"name":"Zadoshchen’ye","country":"Belarus","lng":27.658996,"lat":53.377649},{"name":"Hollum","country":"Netherlands","lng":5.381511,"lat":54.115865},{"name":"Ostland","country":"Germany","lng":6.097947,"lat":54.175198},{"name":"Ostdorf","country":"Germany","lng":6.816431,"lat":54.22997},{"name":"Bad Sankt Peter","country":"Germany","lng":8.25892,"lat":54.325747},{"name":"Harblek","country":"Germany","lng":8.982606,"lat":54.366714},{"name":"Bistensee","country":"Germany","lng":9.707702,"lat":54.403046},{"name":"Schönberger Strand","country":"Germany","lng":10.434043,"lat":54.434727},{"name":"Gedser","country":"Denmark","lng":11.889787,"lat":54.484091},{"name":"Ostseebad Prerow","country":"Germany","lng":12.618851,"lat":54.501753},{"name":"Tribbevitz","country":"Germany","lng":13.34848,"lat":54.514726},{"name":"Waldhalle","country":"Germany","lng":14.078501,"lat":54.523004},{"name":"Ustronie Morskie","country":"Poland","lng":15.539028,"lat":54.525466},{"name":"Darłówko","country":"Poland","lng":16.269186,"lat":54.519648},{"name":"Włynkówko","country":"Poland","lng":16.999043,"lat":54.509133},{"name":"Małoszyce","country":"Poland","lng":17.728424,"lat":54.493926},{"name":"Kąty","country":"Poland","lng":19.185072,"lat":54.449461},{"name":"Gronowo","country":"Poland","lng":19.911999,"lat":54.420221},{"name":"Bagrationovsk","country":"Russia","lng":20.637767,"lat":54.386323},{"name":"Krymskoye","country":"Russia","lng":21.362212,"lat":54.347782},{"name":"Błaskowizna","country":"Poland","lng":22.806475,"lat":54.256831},{"name":"Klapotkė","country":"Lithuania","lng":23.52597,"lat":54.204457},{"name":"Bingeliai","country":"Lithuania","lng":24.243498,"lat":54.14751},{"name":"Kivantsy","country":"Belarus","lng":24.958905,"lat":54.086012},{"name":"Syabryn’ Vtoroye","country":"Belarus","lng":26.382755,"lat":53.94946},{"name":"Lisovshchina","country":"Belarus","lng":27.090908,"lat":53.874457},{"name":"Pryvol’ny","country":"Belarus","lng":27.796357,"lat":53.795007},{"name":"Hörnum","country":"Germany","lng":7.453644,"lat":54.702656},{"name":"Hörnum","country":"Germany","lng":8.183678,"lat":54.748749},{"name":"Klixbüll","country":"Germany","lng":8.915341,"lat":54.790172},{"name":"Olde","country":"Denmark","lng":10.382876,"lat":54.858944},{"name":"Købelev","country":"Denmark","lng":11.118403,"lat":54.886265},{"name":"Egelev","country":"Denmark","lng":11.854871,"lat":54.90886},{"name":"Busene","country":"Denmark","lng":12.592102,"lat":54.926721},{"name":"Rønne","country":"Denmark","lng":14.068141,"lat":54.948211},{"name":"Boderne","country":"Denmark","lng":14.806592,"lat":54.951832},{"name":"Snogebæk","country":"Denmark","lng":15.545089,"lat":54.9507},{"name":"Jarosławiec","country":"Poland","lng":16.283454,"lat":54.944817},{"name":"Miedzno","country":"Poland","lng":17.759065,"lat":54.918806},{"name":"Cetniewo","country":"Poland","lng":18.495955,"lat":54.89869},{"name":"Bór","country":"Poland","lng":19.231996,"lat":54.873843},{"name":"Rakushino","country":"Russia","lng":19.967014,"lat":54.844275},{"name":"Drozkino","country":"Russia","lng":21.433283,"lat":54.771029},{"name":"Berezino","country":"Russia","lng":22.164191,"lat":54.72738},{"name":"Skardupiai","country":"Lithuania","lng":22.89339,"lat":54.679069},{"name":"Jasenava","country":"Lithuania","lng":23.620716,"lat":54.626117},{"name":"Žvėrynas","country":"Lithuania","lng":25.069102,"lat":54.50637},{"name":"Varni","country":"Belarus","lng":25.789847,"lat":54.439623},{"name":"Sivitsa","country":"Belarus","lng":26.508089,"lat":54.368329},{"name":"Vel’ki Bur","country":"Belarus","lng":27.223681,"lat":54.292513},{"name":"Westerland","country":"Germany","lng":7.36873,"lat":55.125094},{"name":"Vodder","country":"Denmark","lng":8.846653,"lat":55.213592},{"name":"Grarup","country":"Denmark","lng":9.58797,"lat":55.250742},{"name":"Radby","country":"Denmark","lng":10.330621,"lat":55.283139},{"name":"Korsør","country":"Denmark","lng":11.074428,"lat":55.310769},{"name":"Sigerslev","country":"Denmark","lng":12.564781,"lat":55.351683},{"name":"Lilla Isie","country":"Sweden","lng":13.31096,"lat":55.36495},{"name":"Kåseberga","country":"Sweden","lng":14.05756,"lat":55.373417},{"name":"Sandvig","country":"Denmark","lng":14.804395,"lat":55.377079},{"name":"Czołpino","country":"Poland","lng":17.044448,"lat":55.359231},{"name":"Miedzno","country":"Poland","lng":17.790361,"lat":55.343678},{"name":"Bytonia","country":"Poland","lng":18.535579,"lat":55.323334},{"name":"Mayak","country":"Russia","lng":20.023198,"lat":55.268305},{"name":"Izgary","country":"Russia","lng":20.765237,"lat":55.233643},{"name":"Girininkai","country":"Lithuania","lng":21.505855,"lat":55.194234},{"name":"Adomiškiai","country":"Lithuania","lng":22.244879,"lat":55.150095},{"name":"Godėnai","country":"Lithuania","lng":23.717447,"lat":55.047701},{"name":"Svirplionys","country":"Lithuania","lng":24.450654,"lat":54.989487},{"name":"Kazimieravas","country":"Lithuania","lng":25.181589,"lat":54.926626},{"name":"Kyemyelishki","country":"Belarus","lng":25.910092,"lat":54.859143},{"name":"Sivtsy","country":"Belarus","lng":27.359178,"lat":54.71042},{"name":"Govorets","country":"Belarus","lng":28.079459,"lat":54.629238},{"name":"Blåvand","country":"Denmark","lng":7.282,"lat":55.547472},{"name":"Vejers Strand","country":"Denmark","lng":8.02837,"lat":55.594609},{"name":"Starup","country":"Denmark","lng":8.776487,"lat":55.636973},{"name":"Søndermarken","country":"Denmark","lng":9.526171,"lat":55.674545},{"name":"Overbjerg","country":"Denmark","lng":11.029502,"lat":55.735256},{"name":"Brønde","country":"Denmark","lng":11.782775,"lat":55.758368},{"name":"Fortunen","country":"Denmark","lng":12.536868,"lat":55.776638},{"name":"Damstorp","country":"Sweden","lng":13.29159,"lat":55.790058},{"name":"Nogersund","country":"Sweden","lng":14.802151,"lat":55.802325},{"name":"Stenshamn","country":"Sweden","lng":15.557604,"lat":55.801168},{"name":"Stenshamn","country":"Sweden","lng":16.312914,"lat":55.795149},{"name":"Näsby","country":"Sweden","lng":17.067889,"lat":55.784273},{"name":"Karklė","country":"Lithuania","lng":20.080595,"lat":55.692308},{"name":"Kopgalis","country":"Lithuania","lng":20.831026,"lat":55.657251},{"name":"Stoniai","country":"Lithuania","lng":22.327294,"lat":55.572756},{"name":"Skiručiai","country":"Lithuania","lng":23.07277,"lat":55.523353},{"name":"Piliamantas","country":"Lithuania","lng":23.816236,"lat":55.469207},{"name":"Užulėnis","country":"Lithuania","lng":24.557519,"lat":55.410339},{"name":"Obely Ragas","country":"Lithuania","lng":26.032865,"lat":55.278541},{"name":"Volod’ki","country":"Belarus","lng":26.766599,"lat":55.205663},{"name":"Konstantinovo","country":"Belarus","lng":27.497496,"lat":55.128172},{"name":"Krovnitsa","country":"Belarus","lng":28.225402,"lat":55.046098},{"name":"Hvide Sande","country":"Denmark","lng":7.193385,"lat":55.969788},{"name":"Sønder Lyngvig","country":"Denmark","lng":7.948181,"lat":56.017463},{"name":"Asklev","country":"Denmark","lng":9.463019,"lat":56.098316},{"name":"Østerågård","country":"Denmark","lng":10.222682,"lat":56.131459},{"name":"Elsegårde","country":"Denmark","lng":10.983587,"lat":56.159727},{"name":"Liseleje","country":"Denmark","lng":11.745539,"lat":56.183106},{"name":"Varshult","country":"Sweden","lng":13.271793,"lat":56.215163},{"name":"Västra Olinge","country":"Sweden","lng":14.035698,"lat":56.223825},{"name":"Gungvala","country":"Sweden","lng":14.799857,"lat":56.227572},{"name":"Alstugorna","country":"Sweden","lng":15.564068,"lat":56.226401},{"name":"Torngård","country":"Sweden","lng":17.091846,"lat":56.20931},{"name":"Nida","country":"Latvia","lng":20.898255,"lat":56.080823},{"name":"Žeimiai","country":"Lithuania","lng":21.655736,"lat":56.04051},{"name":"Juodsodė","country":"Lithuania","lng":22.411504,"lat":55.99536},{"name":"Švendrė","country":"Lithuania","lng":23.165372,"lat":55.945393},{"name":"Užubaliai II","country":"Lithuania","lng":24.666686,"lat":55.831097},{"name":"Kurkliečiai","country":"Lithuania","lng":25.413776,"lat":55.766815},{"name":"Šunelė","country":"Lithuania","lng":26.158259,"lat":55.697813},{"name":"Rozhevo","country":"Belarus","lng":26.899967,"lat":55.624119},{"name":"Verkhniye Morozy","country":"Belarus","lng":28.374414,"lat":55.46278},{"name":"Sønderby Gårde","country":"Denmark","lng":7.866218,"lat":56.440264},{"name":"Østerby","country":"Denmark","lng":8.631498,"lat":56.483609},{"name":"Kølsen","country":"Denmark","lng":9.398461,"lat":56.522055},{"name":"Tvede","country":"Denmark","lng":10.16691,"lat":56.555583},{"name":"Anholt","country":"Denmark","lng":11.707469,"lat":56.607833},{"name":"Skälvik","country":"Sweden","lng":12.479172,"lat":56.62653},{"name":"Ebbared","country":"Sweden","lng":13.251551,"lat":56.640264},{"name":"Käxnäs","country":"Sweden","lng":14.0244,"lat":56.649028},{"name":"Rostock","country":"Sweden","lng":15.570678,"lat":56.651634},{"name":"Sjölyckan","country":"Sweden","lng":16.34369,"lat":56.645475},{"name":"Strandtorp","country":"Sweden","lng":17.116341,"lat":56.634343},{"name":"Austre","country":"Sweden","lng":17.888424,"lat":56.618245},{"name":"Karosta","country":"Latvia","lng":20.199212,"lat":56.540231},{"name":"Liepāja","country":"Latvia","lng":20.966979,"lat":56.504359},{"name":"Asīte","country":"Latvia","lng":21.733165,"lat":56.463578},{"name":"Žagariškiai","country":"Lithuania","lng":23.260015,"lat":56.367363},{"name":"Juknišķi","country":"Latvia","lng":24.020299,"lat":56.311971},{"name":"Aleknai","country":"Lithuania","lng":24.77824,"lat":56.251755},{"name":"Ilzenbergas","country":"Lithuania","lng":25.533656,"lat":56.18674},{"name":"Peipiņi","country":"Latvia","lng":27.036213,"lat":56.042428},{"name":"Lipovki","country":"Belarus","lng":27.783013,"lat":55.963191},{"name":"Yakubovo","country":"Belarus","lng":28.526608,"lat":55.879278},{"name":"Agger","country":"Denmark","lng":7.782411,"lat":56.86301},{"name":"Beersted","country":"Denmark","lng":8.556554,"lat":56.906862},{"name":"Sejlflod","country":"Denmark","lng":10.109874,"lat":56.979682},{"name":"Tørkeriet","country":"Denmark","lng":10.88864,"lat":57.008616},{"name":"Stenared","country":"Sweden","lng":11.668533,"lat":57.032547},{"name":"Frigårde","country":"Sweden","lng":12.44934,"lat":57.051466},{"name":"Rolstorp","country":"Sweden","lng":14.012845,"lat":57.07423},{"name":"Nykulla","country":"Sweden","lng":14.795113,"lat":57.078065},{"name":"Ekholma","country":"Sweden","lng":15.577438,"lat":57.076867},{"name":"Långhult","country":"Sweden","lng":16.359604,"lat":57.070634},{"name":"Kvarne","country":"Sweden","lng":17.922596,"lat":57.043082},{"name":"Tomtbod","country":"Sweden","lng":18.702994,"lat":57.021775},{"name":"Sysne","country":"Sweden","lng":19.482376,"lat":56.99546},{"name":"Akmensrags","country":"Latvia","lng":20.260533,"lat":56.964148},{"name":"Soldenieki","country":"Latvia","lng":21.812338,"lat":56.886596},{"name":"Jaunvarieba","country":"Latvia","lng":22.585578,"lat":56.84039},{"name":"Apšupe","country":"Latvia","lng":23.356778,"lat":56.789259},{"name":"Mellupi","country":"Latvia","lng":24.12574,"lat":56.733224},{"name":"Stukmaņi","country":"Latvia","lng":25.656189,"lat":56.606547},{"name":"Atašiene","country":"Latvia","lng":26.417306,"lat":56.535961},{"name":"Losi","country":"Latvia","lng":27.175445,"lat":56.460583},{"name":"Kušneri","country":"Latvia","lng":27.930433,"lat":56.380445},{"name":"Hanstholm","country":"Denmark","lng":8.479891,"lat":57.330069},{"name":"Pirupshvarre","country":"Denmark","lng":9.264907,"lat":57.369427},{"name":"Ilbro","country":"Denmark","lng":10.051523,"lat":57.403754},{"name":"Vesterø Havn","country":"Denmark","lng":10.839525,"lat":57.433032},{"name":"Bönhult","country":"Sweden","lng":12.418817,"lat":57.476394},{"name":"Gebo","country":"Sweden","lng":13.209666,"lat":57.490456},{"name":"Uljeshult","country":"Sweden","lng":14.001021,"lat":57.499431},{"name":"Sandsjöfors","country":"Sweden","lng":14.792659,"lat":57.503312},{"name":"Boda","country":"Sweden","lng":16.375886,"lat":57.495792},{"name":"Nabbelund","country":"Sweden","lng":17.167028,"lat":57.484394},{"name":"Krokstäde","country":"Sweden","lng":17.957557,"lat":57.46791},{"name":"Kräklingbo","country":"Sweden","lng":18.747253,"lat":57.446349},{"name":"Akmensrags","country":"Latvia","lng":20.323264,"lat":57.388035},{"name":"Ostnieki","country":"Latvia","lng":21.109145,"lat":57.351311},{"name":"Dzirciems","country":"Latvia","lng":21.893324,"lat":57.309563},{"name":"Laidze","country":"Latvia","lng":22.675592,"lat":57.262812},{"name":"Gauja","country":"Latvia","lng":24.23357,"lat":57.154385},{"name":"Myza Kartuzhi","country":"Latvia","lng":25.008879,"lat":57.092761},{"name":"Grineni","country":"Latvia","lng":25.781476,"lat":57.026231},{"name":"Indrāni","country":"Latvia","lng":26.55117,"lat":56.954826},{"name":"Polyakovo","country":"Russia","lng":28.081118,"lat":56.797521},{"name":"Posadnikovo","country":"Russia","lng":28.841021,"lat":56.71169},{"name":"Våge","country":"Norway","lng":6.818599,"lat":57.658374},{"name":"Ytre Farestad","country":"Norway","lng":7.608972,"lat":57.708327},{"name":"Ulvøysund","country":"Norway","lng":8.401442,"lat":57.753229},{"name":"Tornby Strand","country":"Denmark","lng":9.195793,"lat":57.793059},{"name":"Østerby","country":"Denmark","lng":10.789258,"lat":57.857429},{"name":"Arvidsvik","country":"Sweden","lng":11.587924,"lat":57.881939},{"name":"Järn","country":"Sweden","lng":12.387576,"lat":57.901314},{"name":"Galtholmen","country":"Sweden","lng":13.187984,"lat":57.915547},{"name":"Frinnaryd","country":"Sweden","lng":14.790146,"lat":57.928559},{"name":"Korpklev","country":"Sweden","lng":15.591435,"lat":57.927331},{"name":"Rödja","country":"Sweden","lng":16.392552,"lat":57.920947},{"name":"Hulöhamn","country":"Sweden","lng":17.193265,"lat":57.909411},{"name":"Kappelshamn","country":"Sweden","lng":18.792553,"lat":57.870906},{"name":"Sudersand","country":"Sweden","lng":19.590669,"lat":57.843956},{"name":"Ovīši","country":"Latvia","lng":21.182712,"lat":57.774725},{"name":"Aizklaņi","country":"Latvia","lng":22.767693,"lat":57.685167},{"name":"Ruhnu","country":"Estonia","lng":23.556993,"lat":57.632817},{"name":"Ķurmrags","country":"Latvia","lng":24.343884,"lat":57.575452},{"name":"Mazbrenguļi","country":"Latvia","lng":25.128161,"lat":57.513099},{"name":"Jaunzemji","country":"Latvia","lng":26.688076,"lat":57.373545},{"name":"Strauti","country":"Latvia","lng":27.463327,"lat":57.296409},{"name":"Tryapino","country":"Russia","lng":28.235192,"lat":57.214411},{"name":"Rudino","country":"Russia","lng":29.003493,"lat":57.12759},{"name":"Midtbrød","country":"Norway","lng":5.127278,"lat":57.963999},{"name":"Nesvåg","country":"Norway","lng":5.922039,"lat":58.024698},{"name":"Rødland østre","country":"Norway","lng":6.719413,"lat":58.080338},{"name":"Hauge","country":"Norway","lng":7.519185,"lat":58.130893},{"name":"Myrene","country":"Norway","lng":9.125038,"lat":58.216652},{"name":"Lyngør","country":"Norway","lng":9.930667,"lat":58.251813},{"name":"Smögen","country":"Sweden","lng":10.737791,"lat":58.281806},{"name":"Torseröd","country":"Sweden","lng":11.546177,"lat":58.306614},{"name":"Lilla Jungatorp","country":"Sweden","lng":13.165784,"lat":58.340634},{"name":"Varola","country":"Sweden","lng":13.976526,"lat":58.349828},{"name":"Svanshals","country":"Sweden","lng":14.787574,"lat":58.353805},{"name":"Ralstorp","country":"Sweden","lng":15.598685,"lat":58.352562},{"name":"Missjö","country":"Sweden","lng":17.22013,"lat":58.334423},{"name":"Landsort","country":"Sweden","lng":18.029982,"lat":58.317536},{"name":"Lauter","country":"Sweden","lng":18.838934,"lat":58.295447},{"name":"Austers","country":"Sweden","lng":19.646748,"lat":58.268168},{"name":"Austla","country":"Estonia","lng":21.258025,"lat":58.198095},{"name":"Metsalõuka","country":"Estonia","lng":22.061026,"lat":58.155335},{"name":"Vätta","country":"Estonia","lng":22.861966,"lat":58.107454},{"name":"Rootsiküla","country":"Estonia","lng":23.660623,"lat":58.054474},{"name":"Virķēni","country":"Latvia","lng":25.250223,"lat":57.933323},{"name":"Piiri","country":"Estonia","lng":26.040745,"lat":57.865209},{"name":"Lükkä","country":"Estonia","lng":26.828143,"lat":57.792113},{"name":"Bel’sko","country":"Russia","lng":27.61222,"lat":57.714067},{"name":"Lyutyye Bolota","country":"Russia","lng":29.169656,"lat":57.543275},{"name":"Obrestad","country":"Norway","lng":5.006774,"lat":58.384473},{"name":"Vatnamoholmane","country":"Norway","lng":5.810957,"lat":58.445907},{"name":"Kylland","country":"Norway","lng":7.427243,"lat":58.553395},{"name":"Lauvrak","country":"Norway","lng":8.238893,"lat":58.599397},{"name":"Kirkemyren","country":"Norway","lng":9.052573,"lat":58.640205},{"name":"Jomfruland","country":"Norway","lng":9.868048,"lat":58.675799},{"name":"Ödsmål","country":"Sweden","lng":11.503416,"lat":58.731276},{"name":"Årbol","country":"Sweden","lng":12.32282,"lat":58.751132},{"name":"Tallbacken","country":"Sweden","lng":13.143042,"lat":58.765717},{"name":"Enåsa","country":"Sweden","lng":13.963832,"lat":58.775026},{"name":"Stigstorp","country":"Sweden","lng":15.606111,"lat":58.777793},{"name":"Stavsjö","country":"Sweden","lng":16.427099,"lat":58.771251},{"name":"Klastorp","country":"Sweden","lng":17.247649,"lat":58.759429},{"name":"Landsort","country":"Sweden","lng":18.067513,"lat":58.742333},{"name":"Långviksskär","country":"Sweden","lng":19.704186,"lat":58.692356},{"name":"Neeme","country":"Estonia","lng":21.335155,"lat":58.62142},{"name":"Tagaranna","country":"Estonia","lng":22.147898,"lat":58.578136},{"name":"Allika","country":"Estonia","lng":23.766729,"lat":58.476045},{"name":"Selja","country":"Estonia","lng":24.572362,"lat":58.417287},{"name":"Leemeti","country":"Estonia","lng":25.375176,"lat":58.353427},{"name":"Rannu","country":"Estonia","lng":26.174958,"lat":58.284494},{"name":"Balsovo","country":"Russia","lng":27.764589,"lat":58.131546},{"name":"Urochishche Kuznetsovo","country":"Russia","lng":28.554038,"lat":58.047605},{"name":"Zarech’ye","country":"Russia","lng":29.339653,"lat":57.958736},{"name":"Utsira","country":"Norway","lng":4.072586,"lat":58.737498},{"name":"Soma","country":"Norway","lng":5.697184,"lat":58.867018},{"name":"Øvstabøstølen","country":"Norway","lng":6.513826,"lat":58.924027},{"name":"Langeid","country":"Norway","lng":7.333056,"lat":58.97583},{"name":"Kilegrend","country":"Norway","lng":8.154637,"lat":59.022401},{"name":"Langangen","country":"Norway","lng":9.803887,"lat":59.099753},{"name":"Nord Måkerøy","country":"Norway","lng":10.631061,"lat":59.130495},{"name":"Asak","country":"Norway","lng":11.459597,"lat":59.155924},{"name":"Gällsnäs","country":"Sweden","lng":12.289242,"lat":59.176028},{"name":"Framnäs","country":"Sweden","lng":13.950823,"lat":59.200221},{"name":"Farbrorstorp","country":"Sweden","lng":14.782238,"lat":59.204298},{"name":"Biskopsvrak","country":"Sweden","lng":15.613722,"lat":59.203024},{"name":"Lund","country":"Sweden","lng":16.445013,"lat":59.1964},{"name":"Kolartorp","country":"Sweden","lng":18.105972,"lat":59.167119},{"name":"Långviksskär","country":"Sweden","lng":18.935121,"lat":59.144477},{"name":"Trovill","country":"Sweden","lng":19.76304,"lat":59.116517},{"name":"Palli","country":"Estonia","lng":22.236893,"lat":59.000877},{"name":"Hagaste","country":"Estonia","lng":23.057385,"lat":58.951811},{"name":"Kirna","country":"Estonia","lng":23.875411,"lat":58.897526},{"name":"Mallukse","country":"Estonia","lng":24.690739,"lat":58.838047},{"name":"Kurukse","country":"Estonia","lng":26.312387,"lat":58.703634},{"name":"Linaleo","country":"Estonia","lng":27.118268,"lat":58.628767},{"name":"Kazurino","country":"Russia","lng":27.920571,"lat":58.54884},{"name":"Zagor’ye","country":"Russia","lng":28.719092,"lat":58.463893},{"name":"Utsira","country":"Norway","lng":3.936404,"lat":59.156905},{"name":"Utsira","country":"Norway","lng":4.756924,"lat":59.225069},{"name":"Falkeid","country":"Norway","lng":5.580608,"lat":59.288026},{"name":"Vadla","country":"Norway","lng":6.407224,"lat":59.345744},{"name":"Dalen","country":"Norway","lng":8.068284,"lat":59.445349},{"name":"Kasin","country":"Norway","lng":8.902232,"lat":59.487184},{"name":"Passebekk","country":"Norway","lng":9.73812,"lat":59.523675},{"name":"Fuglebakk","country":"Norway","lng":10.57569,"lat":59.554805},{"name":"Gränsjön","country":"Sweden","lng":12.254819,"lat":59.600915},{"name":"Renstad","country":"Sweden","lng":13.095845,"lat":59.615871},{"name":"Suttertjärn","country":"Sweden","lng":13.937485,"lat":59.625416},{"name":"Finnån","country":"Sweden","lng":14.779469,"lat":59.629544},{"name":"Erikslund","country":"Sweden","lng":16.463379,"lat":59.621546},{"name":"Säby","country":"Sweden","lng":17.30476,"lat":59.609423},{"name":"Orkesta","country":"Sweden","lng":18.145398,"lat":59.591893},{"name":"Storvik","country":"Sweden","lng":18.985024,"lat":59.568965},{"name":"Finnö","country":"Åland","lng":20.660171,"lat":59.506965},{"name":"Utö","country":"Finland","lng":21.495167,"lat":59.467926},{"name":"Tahkuna","country":"Estonia","lng":22.328102,"lat":59.423556},{"name":"Osmussaare","country":"Estonia","lng":23.158721,"lat":59.373876},{"name":"Arusta","country":"Estonia","lng":24.812026,"lat":59.258696},{"name":"Peedu","country":"Estonia","lng":25.634232,"lat":59.193255},{"name":"Võnnusvere-Tagaküla","country":"Estonia","lng":26.453163,"lat":59.122625},{"name":"Sälliku","country":"Estonia","lng":27.268596,"lat":59.04684},{"name":"Novoivanovskoye","country":"Russia","lng":28.888099,"lat":58.879964},{"name":"Dar’ino","country":"Russia","lng":29.691757,"lat":58.788954},{"name":"Geitung","country":"Norway","lng":4.627332,"lat":59.64518},{"name":"Markhus","country":"Norway","lng":6.297941,"lat":59.767373},{"name":"Viviki","country":"Norway","lng":7.13757,"lat":59.820486},{"name":"Hovden","country":"Norway","lng":7.979743,"lat":59.868239},{"name":"Rollag","country":"Norway","lng":8.824201,"lat":59.910606},{"name":"Lommedalen","country":"Norway","lng":10.518906,"lat":59.979091},{"name":"Bøss","country":"Norway","lng":11.36861,"lat":60.005173},{"name":"Nordre Ilag","country":"Norway","lng":12.219515,"lat":60.025793},{"name":"Väsby","country":"Sweden","lng":13.07134,"lat":60.040942},{"name":"Yxsjöberg","country":"Sweden","lng":14.77663,"lat":60.05479},{"name":"Sörbo","country":"Sweden","lng":15.629527,"lat":60.053484},{"name":"Västerbo","country":"Sweden","lng":16.482216,"lat":60.046689},{"name":"Domarbo","country":"Sweden","lng":17.334412,"lat":60.034411},{"name":"Oxhalsö","country":"Sweden","lng":19.036202,"lat":59.993433},{"name":"Östergård","country":"Åland","lng":19.885237,"lat":59.964755},{"name":"Lilleböle","country":"Åland","lng":20.732665,"lat":59.930639},{"name":"Jurmo","country":"Finland","lng":21.578214,"lat":59.891103},{"name":"Tvärminne","country":"Finland","lng":23.26261,"lat":59.79586},{"name":"Bastö","country":"Finland","lng":24.100936,"lat":59.740203},{"name":"Kelnase","country":"Estonia","lng":24.936344,"lat":59.679229},{"name":"Turbuneeme","country":"Estonia","lng":25.768587,"lat":59.612969},{"name":"Valaste","country":"Estonia","lng":27.422626,"lat":59.464736},{"name":"Zakhon’ye Vtoroye","country":"Russia","lng":28.243964,"lat":59.382838},{"name":"Volpi","country":"Russia","lng":29.061222,"lat":59.295808},{"name":"Bekovo","country":"Russia","lng":29.874189,"lat":59.20369},{"name":"Vikso","country":"Norway","lng":4.494456,"lat":60.065161},{"name":"Røtinga","country":"Norway","lng":5.338574,"lat":60.129717},{"name":"Årvik","country":"Norway","lng":6.185864,"lat":60.188908},{"name":"Hjølmo","country":"Norway","lng":7.036068,"lat":60.242702},{"name":"Uvdal","country":"Norway","lng":8.744154,"lat":60.333981},{"name":"Gulsvik","country":"Norway","lng":9.60149,"lat":60.371416},{"name":"Askim","country":"Norway","lng":10.460648,"lat":60.403353},{"name":"Lønlifallet","country":"Norway","lng":11.321344,"lat":60.429773},{"name":"Digerberget","country":"Sweden","lng":13.046197,"lat":60.466007},{"name":"Forsbäckheden","country":"Sweden","lng":13.90977,"lat":60.475801},{"name":"Dala-Floda","country":"Sweden","lng":14.773716,"lat":60.480037},{"name":"Dalvik","country":"Sweden","lng":15.637739,"lat":60.478713},{"name":"Mehede","country":"Sweden","lng":17.364836,"lat":60.459391},{"name":"Öskatarna","country":"Sweden","lng":18.227322,"lat":60.441405},{"name":"Finbo","country":"Åland","lng":19.088709,"lat":60.41788},{"name":"Östergeta","country":"Åland","lng":19.948709,"lat":60.388831},{"name":"Harkinmaa","country":"Finland","lng":21.663402,"lat":60.314227},{"name":"Kustaali","country":"Finland","lng":22.517536,"lat":60.268714},{"name":"Honkapyöli","country":"Finland","lng":23.369161,"lat":60.217759},{"name":"Kynnar","country":"Finland","lng":24.218011,"lat":60.161392},{"name":"Söderby","country":"Finland","lng":25.906341,"lat":60.032543},{"name":"Kiyskinkyulya","country":"Russia","lng":26.745317,"lat":59.960131},{"name":"Lavansaari","country":"Russia","lng":27.580512,"lat":59.882445},{"name":"Zales’ye","country":"Russia","lng":28.41169,"lat":59.799527},{"name":"Pudost’","country":"Russia","lng":30.061106,"lat":59.618165},{"name":"Ham","country":"United Kingdom","lng":-0.686659,"lat":59.980856},{"name":"Funzie","country":"United Kingdom","lng":0.143026,"lat":60.077975},{"name":"Herdleværet","country":"Norway","lng":4.358153,"lat":60.485005},{"name":"Litlebergen","country":"Norway","lng":5.21286,"lat":60.550391},{"name":"Mjølfjell","country":"Norway","lng":6.931916,"lat":60.664838},{"name":"Eggjareir","country":"Norway","lng":7.795721,"lat":60.713834},{"name":"Sjauset","country":"Norway","lng":8.662004,"lat":60.757307},{"name":"Brattrudgrenda","country":"Norway","lng":9.530477,"lat":60.795232},{"name":"Ringnes","country":"Norway","lng":11.272827,"lat":60.854356},{"name":"Risberget","country":"Norway","lng":12.146106,"lat":60.87552},{"name":"Tisjölandet","country":"Sweden","lng":13.020386,"lat":60.891068},{"name":"Åsen","country":"Sweden","lng":13.895361,"lat":60.900991},{"name":"Nyfäbon","country":"Sweden","lng":15.646169,"lat":60.903941},{"name":"Gåsbo","country":"Sweden","lng":16.521386,"lat":60.896967},{"name":"Iggön","country":"Sweden","lng":17.396068,"lat":60.884365},{"name":"Fågelsundet","country":"Sweden","lng":18.269909,"lat":60.866141},{"name":"Dånö","country":"Åland","lng":20.013856,"lat":60.812876},{"name":"Lyökki","country":"Finland","lng":20.883361,"lat":60.777865},{"name":"Vihtijärvi","country":"Finland","lng":21.750827,"lat":60.737294},{"name":"Jalkala","country":"Finland","lng":22.615965,"lat":60.691188},{"name":"Vaskijärvi","country":"Finland","lng":24.338124,"lat":60.582474},{"name":"Tikkaro","country":"Finland","lng":25.194595,"lat":60.519928},{"name":"Pernå","country":"Finland","lng":26.047638,"lat":60.451969},{"name":"Palaskylä","country":"Finland","lng":26.896995,"lat":60.378633},{"name":"Krasnoostrovskiy","country":"Russia","lng":28.583659,"lat":60.215996},{"name":"Pesochnoye","country":"Russia","lng":29.420492,"lat":60.126782},{"name":"Kolomyagi","country":"Russia","lng":30.252691,"lat":60.032368},{"name":"Symbister","country":"United Kingdom","lng":-0.888235,"lat":60.394128},{"name":"Eivindvik","country":"Norway","lng":5.083835,"lat":60.970944},{"name":"Ystrebø","country":"Norway","lng":5.952835,"lat":61.031684},{"name":"Fresvik","country":"Norway","lng":6.824998,"lat":61.08689},{"name":"Naddvik","country":"Norway","lng":7.700035,"lat":61.136533},{"name":"Liomsætra","country":"Norway","lng":9.45756,"lat":61.21901},{"name":"Smedpersætra","country":"Norway","lng":10.339446,"lat":61.251796},{"name":"Strandsætra","country":"Norway","lng":11.223002,"lat":61.278921},{"name":"Hovi","country":"Norway","lng":12.107919,"lat":61.300368},{"name":"Andersbodarna","country":"Sweden","lng":13.880563,"lat":61.326179},{"name":"Lindsborg","country":"Sweden","lng":14.767652,"lat":61.330529},{"name":"Gammelhomna","country":"Sweden","lng":15.654826,"lat":61.32917},{"name":"Bäckänge","country":"Sweden","lng":16.541763,"lat":61.322102},{"name":"Agö Hamn","country":"Sweden","lng":18.313644,"lat":61.290863},{"name":"Niemi","country":"Finland","lng":20.080752,"lat":61.236888},{"name":"Niemi","country":"Finland","lng":20.961732,"lat":61.201412},{"name":"Kallionpää","country":"Finland","lng":22.717014,"lat":61.113588},{"name":"Salmi","country":"Finland","lng":23.590718,"lat":61.061292},{"name":"Hämeenlinna","country":"Finland","lng":24.46141,"lat":61.003446},{"name":"Voistia","country":"Finland","lng":25.328806,"lat":60.940084},{"name":"Saittara","country":"Finland","lng":27.052619,"lat":60.796958},{"name":"Parkkola","country":"Finland","lng":27.908509,"lat":60.717275},{"name":"Matrosovo","country":"Russia","lng":28.760052,"lat":60.632237},{"name":"Silino","country":"Russia","lng":29.607006,"lat":60.541891},{"name":"Hulland","country":"United Kingdom","lng":-1.094993,"lat":60.807087},{"name":"Valsgarth","country":"United Kingdom","lng":-0.24542,"lat":60.906677},{"name":"Bulandet","country":"Norway","lng":4.074667,"lat":61.324259},{"name":"Kjørrvik","country":"Norway","lng":4.951352,"lat":61.39137},{"name":"Steinen","country":"Norway","lng":5.831622,"lat":61.452915},{"name":"Bjørk","country":"Norway","lng":7.601753,"lat":61.559162},{"name":"Visdalen","country":"Norway","lng":8.491012,"lat":61.603801},{"name":"Bilbøn","country":"Norway","lng":9.382653,"lat":61.642747},{"name":"Brettninga","country":"Norway","lng":10.276361,"lat":61.675976},{"name":"Nymoen","country":"Norway","lng":12.068682,"lat":61.725204},{"name":"Örebäcken","country":"Sweden","lng":12.966641,"lat":61.741174},{"name":"Mölingdalsvallen","country":"Sweden","lng":13.865357,"lat":61.751366},{"name":"Svartåvallen","country":"Sweden","lng":14.764496,"lat":61.755775},{"name":"Håknorrbo","country":"Sweden","lng":16.562701,"lat":61.747234},{"name":"Bålsön","country":"Sweden","lng":17.461098,"lat":61.734289},{"name":"Bålsön","country":"Sweden","lng":18.35858,"lat":61.715571},{"name":"Reposaari","country":"Finland","lng":21.04224,"lat":61.624912},{"name":"Finpyy","country":"Finland","lng":21.932786,"lat":61.583252},{"name":"Kari","country":"Finland","lng":22.8208,"lat":61.535911},{"name":"Partola","country":"Finland","lng":23.705975,"lat":61.482917},{"name":"Virmaila","country":"Finland","lng":25.466606,"lat":61.360103},{"name":"Kosiö","country":"Finland","lng":26.341484,"lat":61.290354},{"name":"Uutela","country":"Finland","lng":27.212362,"lat":61.215098},{"name":"Taipalsaari","country":"Finland","lng":28.078973,"lat":61.134378},{"name":"Gory","country":"Russia","lng":29.798365,"lat":60.956733},{"name":"Yerakko","country":"Russia","lng":30.650657,"lat":60.859907},{"name":"Burrafirth","country":"United Kingdom","lng":-1.307153,"lat":61.21972},{"name":"Valsgarth","country":"United Kingdom","lng":-0.447301,"lat":61.320593},{"name":"Kvanhovden","country":"Norway","lng":3.927162,"lat":61.743656},{"name":"Isane","country":"Norway","lng":5.707088,"lat":61.874036},{"name":"Faleide","country":"Norway","lng":6.602358,"lat":61.930732},{"name":"Grotli","country":"Norway","lng":7.500758,"lat":61.981719},{"name":"Sausæter","country":"Norway","lng":8.401968,"lat":62.026965},{"name":"Grimsbu","country":"Norway","lng":10.211519,"lat":62.100125},{"name":"Finnstad","country":"Norway","lng":11.119194,"lat":62.127994},{"name":"Elgà","country":"Norway","lng":12.028349,"lat":62.15003},{"name":"Mälen","country":"Sweden","lng":12.938642,"lat":62.166219},{"name":"Västbodarna","country":"Sweden","lng":14.761251,"lat":62.181021},{"name":"Ramsjö","country":"Sweden","lng":15.672867,"lat":62.179624},{"name":"Gräsåsen","country":"Sweden","lng":16.584225,"lat":62.172362},{"name":"Galtström","country":"Sweden","lng":17.494976,"lat":62.159239},{"name":"Kaskinen","country":"Finland","lng":20.220114,"lat":62.084809},{"name":"Kilen","country":"Finland","lng":21.124982,"lat":62.048364},{"name":"Koivuluoma","country":"Finland","lng":22.027535,"lat":62.006136},{"name":"Riekkolanperä","country":"Finland","lng":23.824395,"lat":61.904442},{"name":"Vehkaoja","country":"Finland","lng":24.718067,"lat":61.845039},{"name":"Luhanka","country":"Finland","lng":25.608156,"lat":61.779978},{"name":"Tuukkala","country":"Finland","lng":26.494365,"lat":61.7093},{"name":"Vehkaranta","country":"Finland","lng":28.253998,"lat":61.551261},{"name":"Rautionkylä","country":"Finland","lng":29.126875,"lat":61.463995},{"name":"Tervayarvi","country":"Russia","lng":29.994778,"lat":61.371297},{"name":"Uusi-Jerusalem","country":"Russia","lng":30.85746,"lat":61.273219},{"name":"Ervik","country":"Norway","lng":4.675382,"lat":62.23182},{"name":"Tarberg","country":"Norway","lng":5.579082,"lat":62.295041},{"name":"Hundeidvik","country":"Norway","lng":6.486369,"lat":62.352513},{"name":"Ormheim","country":"Norway","lng":8.310412,"lat":62.45007},{"name":"Gjøra","country":"Norway","lng":9.226499,"lat":62.490093},{"name":"Yset","country":"Norway","lng":10.144838,"lat":62.524244},{"name":"Vangsgjelta","country":"Norway","lng":11.065079,"lat":62.5525},{"name":"Baggården","country":"Sweden","lng":12.909845,"lat":62.591258},{"name":"Malmbäckvallen","country":"Sweden","lng":13.833648,"lat":62.601735},{"name":"Svartnäset","country":"Sweden","lng":14.757913,"lat":62.606267},{"name":"Lombäcken","country":"Sweden","lng":15.682273,"lat":62.60485},{"name":"Bängling","country":"Sweden","lng":17.529819,"lat":62.584181},{"name":"Notsand","country":"Sweden","lng":18.452275,"lat":62.564941},{"name":"Bönhamn","country":"Sweden","lng":19.373372,"lat":62.53978},{"name":"Stenhamn","country":"Finland","lng":20.292751,"lat":62.508715},{"name":"Luomankylä","country":"Finland","lng":22.124953,"lat":62.428954},{"name":"Marieberg","country":"Finland","lng":23.037086,"lat":62.380309},{"name":"Itämeri","country":"Finland","lng":23.946125,"lat":62.325863},{"name":"Ampiala","country":"Finland","lng":24.851744,"lat":62.265648},{"name":"Kokonkylä","country":"Finland","lng":26.651456,"lat":62.12807},{"name":"Hällinmäki","country":"Finland","lng":27.54494,"lat":62.050791},{"name":"Mielojärvi","country":"Finland","lng":28.433787,"lat":61.967914},{"name":"Ruokolahti","country":"Finland","lng":29.317718,"lat":61.87949},{"name":"Yanaslakhti","country":"Russia","lng":31.069776,"lat":61.686209},{"name":"Årvik","country":"Norway","lng":4.531558,"lat":62.651831},{"name":"Steinshamn","country":"Norway","lng":6.367074,"lat":62.774194},{"name":"Malmefjorden","country":"Norway","lng":7.290118,"lat":62.826602},{"name":"Stølsgrenda","country":"Norway","lng":8.216228,"lat":62.873114},{"name":"Røv","country":"Norway","lng":9.145052,"lat":62.913698},{"name":"Gilset","country":"Norway","lng":11.009399,"lat":62.976984},{"name":"Nedalshytta","country":"Norway","lng":11.944185,"lat":62.999643},{"name":"Vålåstugorna","country":"Sweden","lng":12.880212,"lat":63.016291},{"name":"Bydalen","country":"Sweden","lng":13.817104,"lat":63.026916},{"name":"Fugelsta","country":"Sweden","lng":15.691953,"lat":63.030076},{"name":"Bispfors","country":"Sweden","lng":16.629145,"lat":63.022608},{"name":"Bursjö","country":"Sweden","lng":17.565672,"lat":63.009113},{"name":"Norrfällsviken","country":"Sweden","lng":18.501156,"lat":62.989601},{"name":"Hästgrund","country":"Finland","lng":20.367484,"lat":62.932582},{"name":"Österholmen","country":"Finland","lng":21.297587,"lat":62.895112},{"name":"Kasinkylä","country":"Finland","lng":22.225163,"lat":62.851701},{"name":"Veneskoski","country":"Finland","lng":23.149856,"lat":62.802378},{"name":"Muittari","country":"Finland","lng":24.989206,"lat":62.686126},{"name":"Ruotinkylä","country":"Finland","lng":25.90319,"lat":62.619273},{"name":"Hankamäki","country":"Finland","lng":26.812949,"lat":62.546657},{"name":"Sorsakoski","country":"Finland","lng":27.71817,"lat":62.468326},{"name":"Yläpiha","country":"Finland","lng":29.51381,"lat":62.294713},{"name":"Kirkkoniemi","country":"Finland","lng":30.403664,"lat":62.199538},{"name":"Tsyakinsel’kya","country":"Russia","lng":31.287849,"lat":62.09886},{"name":"Ulla","country":"Norway","lng":5.312,"lat":63.136682},{"name":"Ona","country":"Norway","lng":6.244317,"lat":63.195772},{"name":"Grip","country":"Norway","lng":7.1802,"lat":63.24892},{"name":"Grøtan","country":"Norway","lng":9.061216,"lat":63.337255},{"name":"Viggja","country":"Norway","lng":10.005606,"lat":63.372381},{"name":"Granås","country":"Norway","lng":10.952077,"lat":63.401446},{"name":"Kopperå","country":"Norway","lng":11.90024,"lat":63.42443},{"name":"Nordbyn","country":"Sweden","lng":13.80007,"lat":63.452096},{"name":"Mångbodarna","country":"Sweden","lng":14.750942,"lat":63.456758},{"name":"Skallsjön","country":"Sweden","lng":15.701918,"lat":63.455301},{"name":"Backe","country":"Sweden","lng":16.6526,"lat":63.447726},{"name":"Fors","country":"Sweden","lng":18.551479,"lat":63.414245},{"name":"Långron","country":"Sweden","lng":19.498885,"lat":63.388362},{"name":"Söderudden","country":"Finland","lng":20.444413,"lat":63.356408},{"name":"Björköby","country":"Finland","lng":21.387677,"lat":63.318404},{"name":"Tyynismaa","country":"Finland","lng":23.265907,"lat":63.224353},{"name":"Hallapuro","country":"Finland","lng":24.200136,"lat":63.16837},{"name":"Kivijärvi","country":"Finland","lng":25.130631,"lat":63.106465},{"name":"Ukonniemi","country":"Finland","lng":26.057046,"lat":63.038678},{"name":"Asuma","country":"Finland","lng":27.896311,"lat":62.88564},{"name":"Rikkaranta","country":"Finland","lng":28.808525,"lat":62.800488},{"name":"Iso Hirviniemi","country":"Finland","lng":29.715389,"lat":62.709652},{"name":"Sonkajanranta","country":"Finland","lng":30.616616,"lat":62.613189},{"name":"Brattvær","country":"Norway","lng":7.06702,"lat":63.671151},{"name":"Flatval","country":"Norway","lng":8.019462,"lat":63.719003},{"name":"Uttian","country":"Norway","lng":8.974875,"lat":63.760761},{"name":"Gjøljalia","country":"Norway","lng":9.932866,"lat":63.796397},{"name":"Kolstad","country":"Norway","lng":11.854974,"lat":63.849204},{"name":"Sandviken","country":"Sweden","lng":12.818275,"lat":63.866337},{"name":"Ansätten","country":"Sweden","lng":13.782522,"lat":63.877273},{"name":"Hökvattnet","country":"Sweden","lng":14.747299,"lat":63.882004},{"name":"Stuguvattentjälen","country":"Sweden","lng":16.676762,"lat":63.872839},{"name":"Storsjö","country":"Sweden","lng":17.64061,"lat":63.85895},{"name":"Strömåker","country":"Sweden","lng":18.603315,"lat":63.838869},{"name":"Hörnsjö","country":"Sweden","lng":19.564462,"lat":63.81261},{"name":"Holmön","country":"Sweden","lng":21.480456,"lat":63.741637},{"name":"Pörkenäs","country":"Finland","lng":22.434502,"lat":63.696973},{"name":"Överby","country":"Finland","lng":23.385395,"lat":63.646231},{"name":"Sykäräinen","country":"Finland","lng":24.332753,"lat":63.589447},{"name":"Hakoniemi","country":"Finland","lng":26.215394,"lat":63.457911},{"name":"Onkilahti","country":"Finland","lng":27.149968,"lat":63.383248},{"name":"Tahkovuori","country":"Finland","lng":28.079592,"lat":63.302722},{"name":"Matara","country":"Finland","lng":29.003941,"lat":63.216385},{"name":"Kontiovaara","country":"Finland","lng":30.835585,"lat":63.026508},{"name":"Kasisvaran","country":"Russia","lng":31.7423,"lat":62.923089},{"name":"Sula","country":"Norway","lng":7.916607,"lat":64.141843},{"name":"Hongsand","country":"Norway","lng":9.857904,"lat":64.220375},{"name":"Aune","country":"Norway","lng":10.832183,"lat":64.250298},{"name":"Solem","country":"Norway","lng":11.808319,"lat":64.273963},{"name":"Landsem","country":"Norway","lng":12.785882,"lat":64.29135},{"name":"Lars-Thomas","country":"Sweden","lng":14.743544,"lat":64.307249},{"name":"Öster-Karbäcken","country":"Sweden","lng":15.722767,"lat":64.305749},{"name":"Latikbodarna","country":"Sweden","lng":16.701666,"lat":64.297948},{"name":"Tallberg","country":"Sweden","lng":17.679802,"lat":64.283854},{"name":"Medsele","country":"Sweden","lng":19.632044,"lat":64.236828},{"name":"Överklinten","country":"Sweden","lng":20.60529,"lat":64.203931},{"name":"Munkviken","country":"Sweden","lng":21.576055,"lat":64.164809},{"name":"Krok","country":"Finland","lng":22.543923,"lat":64.11949},{"name":"Kuovila","country":"Finland","lng":24.469353,"lat":64.010397},{"name":"Karsikas","country":"Finland","lng":25.426132,"lat":63.946701},{"name":"Tihilänkangas","country":"Finland","lng":26.378449,"lat":63.876964},{"name":"Ryhälänmäki","country":"Finland","lng":27.32594,"lat":63.801233},{"name":"Ronkeli","country":"Finland","lng":29.205058,"lat":63.632007},{"name":"Alatalo","country":"Finland","lng":30.136025,"lat":63.538625},{"name":"Kibashnavolok","country":"Russia","lng":31.060849,"lat":63.439479},{"name":"Tumba","country":"Russia","lng":31.979236,"lat":63.334634},{"name":"Halten","country":"Norway","lng":8.794175,"lat":64.607611},{"name":"Småværet","country":"Norway","lng":9.780609,"lat":64.644313},{"name":"Utvorda","country":"Norway","lng":10.769435,"lat":64.674686},{"name":"Kjelmoen","country":"Norway","lng":12.752475,"lat":64.716356},{"name":"Limingen","country":"Norway","lng":13.745782,"lat":64.727622},{"name":"Värjaren","country":"Sweden","lng":14.739671,"lat":64.732495},{"name":"Brännåker","country":"Sweden","lng":15.733681,"lat":64.730972},{"name":"Norrbäck","country":"Sweden","lng":17.720219,"lat":64.708746},{"name":"Dallund","country":"Sweden","lng":18.711831,"lat":64.688061},{"name":"Kalvträsk","country":"Sweden","lng":19.701733,"lat":64.661013},{"name":"Brännvattnet","country":"Sweden","lng":20.689474,"lat":64.627623},{"name":"Jatulintarha","country":"Finland","lng":22.65672,"lat":64.541923},{"name":"Suni","country":"Finland","lng":23.635365,"lat":64.489676},{"name":"Limingoja","country":"Finland","lng":24.610134,"lat":64.431216},{"name":"Näsälänperä","country":"Finland","lng":25.580623,"lat":64.366584},{"name":"Vuores","country":"Finland","lng":27.507208,"lat":64.218998},{"name":"Uusitalo","country":"Finland","lng":28.46256,"lat":64.136149},{"name":"Kangasjärvi","country":"Finland","lng":29.412146,"lat":64.047339},{"name":"Vehkalahti","country":"Finland","lng":30.355633,"lat":63.952629},{"name":"Voloma","country":"Russia","lng":32.223045,"lat":63.745773},{"name":"Borgan","country":"Norway","lng":10.704691,"lat":65.099046},{"name":"Huseby","country":"Norway","lng":11.710561,"lat":65.123433},{"name":"Bangstad","country":"Norway","lng":12.718002,"lat":65.141353},{"name":"Majavatn","country":"Norway","lng":13.726533,"lat":65.152792},{"name":"Västansjö","country":"Sweden","lng":15.744943,"lat":65.156194},{"name":"Valträsk","country":"Sweden","lng":16.753854,"lat":65.148154},{"name":"Gubbträsk","country":"Sweden","lng":17.761926,"lat":65.133627},{"name":"Nåda","country":"Sweden","lng":18.768678,"lat":65.112625},{"name":"Storbrännan","country":"Sweden","lng":20.776325,"lat":65.051265},{"name":"Jävrebodarna","country":"Sweden","lng":21.776288,"lat":65.010956},{"name":"Småskären","country":"Sweden","lng":22.773066,"lat":64.964266},{"name":"Tauvo","country":"Finland","lng":23.766216,"lat":64.911233},{"name":"Markkula","country":"Finland","lng":25.739904,"lat":64.786299},{"name":"Mikkola","country":"Finland","lng":26.719612,"lat":64.714493},{"name":"Väisälä","country":"Finland","lng":27.69403,"lat":64.636531},{"name":"Riitakylä","country":"Finland","lng":28.662779,"lat":64.552469},{"name":"Byk-Navolok","country":"Russia","lng":30.581829,"lat":64.366292},{"name":"Bol’shozero","country":"Russia","lng":31.531451,"lat":64.264309},{"name":"Merguba","country":"Russia","lng":32.474048,"lat":64.156489},{"name":"Borgan","country":"Norway","lng":10.637847,"lat":65.523377},{"name":"Eidem","country":"Norway","lng":11.659303,"lat":65.548144},{"name":"Stormoen","country":"Norway","lng":13.706657,"lat":65.57796},{"name":"Joesjö","country":"Sweden","lng":14.731548,"lat":65.582985},{"name":"Boksjö","country":"Sweden","lng":15.756572,"lat":65.581415},{"name":"Giltjaur","country":"Sweden","lng":16.781221,"lat":65.573249},{"name":"Holmen","country":"Sweden","lng":18.827369,"lat":65.537167},{"name":"Gråträsk","country":"Sweden","lng":19.847865,"lat":65.50928},{"name":"Svallfors","country":"Sweden","lng":20.865982,"lat":65.474856},{"name":"Holfjärden","country":"Sweden","lng":21.881233,"lat":65.433924},{"name":"Sandskär","country":"Sweden","lng":23.901245,"lat":65.33267},{"name":"Saha","country":"Finland","lng":24.905084,"lat":65.272429},{"name":"Hannusperä","country":"Finland","lng":25.904219,"lat":65.205838},{"name":"Rukola","country":"Finland","lng":26.898223,"lat":65.13295},{"name":"Alalehto","country":"Finland","lng":28.869205,"lat":64.968509},{"name":"Nyauvara","country":"Russia","lng":29.845409,"lat":64.877078},{"name":"Riinoyarvi","country":"Russia","lng":30.814932,"lat":64.779596},{"name":"Piz’maguba","country":"Russia","lng":31.777434,"lat":64.676132},{"name":"Gaasvaer","country":"Norway","lng":11.606345,"lat":65.972836},{"name":"Botn","country":"Norway","lng":12.64563,"lat":65.991324},{"name":"Svartmarka","country":"Norway","lng":13.68612,"lat":66.003125},{"name":"Högstaby","country":"Sweden","lng":14.727284,"lat":66.00823},{"name":"Vuvosberg","country":"Sweden","lng":16.809497,"lat":65.99834},{"name":"Kurrokvejk","country":"Sweden","lng":17.849479,"lat":65.983353},{"name":"Smalås","country":"Sweden","lng":18.888005,"lat":65.961686},{"name":"Granholmen","country":"Sweden","lng":19.924548,"lat":65.933358},{"name":"Svedjan","country":"Sweden","lng":21.989624,"lat":65.856817},{"name":"Utannäset","country":"Sweden","lng":23.017146,"lat":65.808668},{"name":"Röyttä","country":"Finland","lng":24.040669,"lat":65.753984},{"name":"Koivula","country":"Finland","lng":25.059716,"lat":65.692809},{"name":"Rahko","country":"Finland","lng":27.082553,"lat":65.551188},{"name":"Kurtti","country":"Finland","lng":28.085465,"lat":65.470855},{"name":"Peranka","country":"Finland","lng":29.082151,"lat":65.384254},{"name":"Karpivaara","country":"Russia","lng":30.072216,"lat":65.291454},{"name":"Shonga","country":"Russia","lng":32.031001,"lat":65.087534},{"name":"Panozero","country":"Russia","lng":32.99903,"lat":64.976566},{"name":"Husøya","country":"Norway","lng":11.551597,"lat":66.39751},{"name":"Moflaget","country":"Norway","lng":12.607608,"lat":66.416296},{"name":"Eiteråga","country":"Norway","lng":14.722875,"lat":66.433475},{"name":"Laisdalen","country":"Sweden","lng":15.781011,"lat":66.431854},{"name":"Ringselet","country":"Sweden","lng":16.838731,"lat":66.423425},{"name":"Långudden","country":"Sweden","lng":17.895476,"lat":66.408196},{"name":"Stenträsk","country":"Sweden","lng":20.003815,"lat":66.357397},{"name":"Tjäruträsk","country":"Sweden","lng":21.054312,"lat":66.32187},{"name":"Tallberg","country":"Sweden","lng":22.101643,"lat":66.279631},{"name":"Svartträsk","country":"Sweden","lng":23.145284,"lat":66.230716},{"name":"Runkaus","country":"Finland","lng":25.219454,"lat":66.113027},{"name":"Ylimaa","country":"Finland","lng":26.249002,"lat":66.044351},{"name":"Impiö","country":"Finland","lng":27.272896,"lat":65.969195},{"name":"Kynsivaara","country":"Finland","lng":28.290688,"lat":65.88762},{"name":"Topozero","country":"Russia","lng":30.306263,"lat":65.705477},{"name":"Bol’shoye Ozero","country":"Russia","lng":31.303246,"lat":65.605053},{"name":"Karelaksha","country":"Russia","lng":32.292527,"lat":65.498494},{"name":"Nizhneye Kumozero","country":"Russia","lng":33.273758,"lat":65.385882},{"name":"Myken","country":"Norway","lng":12.568272,"lat":66.841258},{"name":"Mesøy","country":"Norway","lng":13.64292,"lat":66.853447},{"name":"Gråtånes","country":"Norway","lng":14.718314,"lat":66.85872},{"name":"Junkerdal","country":"Norway","lng":15.793864,"lat":66.857072},{"name":"Peuraure","country":"Sweden","lng":17.943062,"lat":66.833025},{"name":"Björkholmen","country":"Sweden","lng":19.015533,"lat":66.810648},{"name":"Ligga","country":"Sweden","lng":20.085808,"lat":66.781394},{"name":"Nattavaara by","country":"Sweden","lng":21.153315,"lat":66.745288},{"name":"Ruokojärvi","country":"Sweden","lng":23.27778,"lat":66.652655},{"name":"Sirkkakoski","country":"Finland","lng":24.333649,"lat":66.596209},{"name":"Nivankylä","country":"Finland","lng":25.384571,"lat":66.533074},{"name":"Jokela","country":"Finland","lng":26.430041,"lat":66.463305},{"name":"Jaksamo","country":"Finland","lng":28.502689,"lat":66.304102},{"name":"Suorajärvi","country":"Finland","lng":29.528949,"lat":66.214802},{"name":"Olanga","country":"Russia","lng":30.547923,"lat":66.119131},{"name":"Okunëva Guba","country":"Russia","lng":31.559204,"lat":66.017167},{"name":"Yelmanga","country":"Russia","lng":33.557185,"lat":65.794683},{"name":"Ystnes","country":"Norway","lng":11.436326,"lat":67.246797},{"name":"Grav","country":"Norway","lng":12.527547,"lat":67.26621},{"name":"Bliksvær","country":"Norway","lng":13.620176,"lat":67.278604},{"name":"Lakså","country":"Norway","lng":15.807172,"lat":67.282289},{"name":"Såmmarlappastugan","country":"Sweden","lng":16.900291,"lat":67.273578},{"name":"Vassjakåtan","country":"Sweden","lng":17.992326,"lat":67.25784},{"name":"Sandudden","country":"Sweden","lng":19.08266,"lat":67.235089},{"name":"Purnuvaara","country":"Sweden","lng":21.255783,"lat":67.168641},{"name":"Kompeluslehto","country":"Sweden","lng":22.337375,"lat":67.125005},{"name":"Sattajärvi","country":"Sweden","lng":23.414876,"lat":67.074478},{"name":"Kotaniemi","country":"Finland","lng":24.48772,"lat":67.017107},{"name":"Javarus","country":"Finland","lng":26.617261,"lat":66.882042},{"name":"Kalkiainen","country":"Finland","lng":27.672915,"lat":66.804467},{"name":"Tikkala","country":"Finland","lng":28.721829,"lat":66.720286},{"name":"Jyrkämä","country":"Russia","lng":29.763536,"lat":66.62957},{"name":"Kyyrölä","country":"Russia","lng":31.82357,"lat":66.428842},{"name":"Nizhneye Kotozero","country":"Russia","lng":32.84108,"lat":66.318995},{"name":"Keret’","country":"Russia","lng":33.849747,"lat":66.202942},{"name":"Ystnes","country":"Norway","lng":11.375583,"lat":67.671408},{"name":"Sørvågen","country":"Norway","lng":13.596612,"lat":67.703756},{"name":"Helnes","country":"Norway","lng":14.708699,"lat":67.709209},{"name":"Elenjorda","country":"Norway","lng":15.820959,"lat":67.707505},{"name":"Vaisaluokta","country":"Sweden","lng":16.932733,"lat":67.698645},{"name":"Nikkaluokta","country":"Sweden","lng":19.1522,"lat":67.659501},{"name":"Sjisjka","country":"Sweden","lng":20.258594,"lat":67.629253},{"name":"Svappavaara","country":"Sweden","lng":21.361911,"lat":67.591926},{"name":"Nuksujärvi","country":"Sweden","lng":22.461526,"lat":67.547554},{"name":"Pudas","country":"Finland","lng":24.647223,"lat":67.43785},{"name":"Syväjärvi","country":"Finland","lng":25.732133,"lat":67.37262},{"name":"Selkälä","country":"Finland","lng":26.811001,"lat":67.30055},{"name":"Lunkkaus","country":"Finland","lng":27.883292,"lat":67.221705},{"name":"Niskasuvanta","country":"Russia","lng":30.006113,"lat":67.043976},{"name":"Koproyva","country":"Russia","lng":31.05569,"lat":66.945248},{"name":"Dolgiy","country":"Russia","lng":32.096785,"lat":66.840055},{"name":"Kovda","country":"Russia","lng":33.128988,"lat":66.728486},{"name":"Ystnes","country":"Norway","lng":11.312608,"lat":68.095995},{"name":"Kjerkfjorden","country":"Norway","lng":12.441609,"lat":68.116082},{"name":"Storeidet","country":"Norway","lng":13.572179,"lat":68.128906},{"name":"Skrova","country":"Norway","lng":14.703626,"lat":68.134454},{"name":"Straumen","country":"Norway","lng":16.966372,"lat":68.123706},{"name":"Sjangeli","country":"Sweden","lng":18.09628,"lat":68.107421},{"name":"Stenbacken","country":"Sweden","lng":19.224292,"lat":68.083881},{"name":"Sevujärvi","country":"Sweden","lng":20.349727,"lat":68.053111},{"name":"Viikusjärvi","country":"Sweden","lng":22.590189,"lat":67.970005},{"name":"Pahtonen","country":"Finland","lng":23.703915,"lat":67.917752},{"name":"Köngäs","country":"Finland","lng":24.812463,"lat":67.858431},{"name":"Rajala","country":"Finland","lng":25.915229,"lat":67.792098},{"name":"Värriö","country":"Finland","lng":28.101093,"lat":67.638657},{"name":"Ruuvaoja","country":"Finland","lng":29.183092,"lat":67.551692},{"name":"Slyuda","country":"Russia","lng":30.257114,"lat":67.458001},{"name":"Rikolatva","country":"Russia","lng":31.322675,"lat":67.357668},{"name":"Pustaya Guba","country":"Russia","lng":33.42662,"lat":67.137434},{"name":"Muna","country":"Russia","lng":34.46418,"lat":67.017723},{"name":"Sand","country":"Norway","lng":12.396217,"lat":68.541},{"name":"Breidvika","country":"Norway","lng":14.698362,"lat":68.559698},{"name":"Moelv","country":"Norway","lng":15.85009,"lat":68.557933},{"name":"Evenes","country":"Norway","lng":17.001276,"lat":68.548759},{"name":"Lapplandia","country":"Sweden","lng":18.151185,"lat":68.532186},{"name":"Vuoskojaure","country":"Sweden","lng":20.444268,"lat":68.476916},{"name":"Pulsujärvi","country":"Sweden","lng":21.586012,"lat":68.438277},{"name":"Kuttainen","country":"Sweden","lng":22.723627,"lat":68.392352},{"name":"Ketomella","country":"Finland","lng":23.856434,"lat":68.339188},{"name":"Pokka","country":"Finland","lng":26.10501,"lat":68.211363},{"name":"Vuotso","country":"Finland","lng":27.219527,"lat":68.136829},{"name":"Korvanen","country":"Finland","lng":28.326735,"lat":68.055307},{"name":"Tulppio","country":"Finland","lng":29.426072,"lat":67.966877},{"name":"Avvaguba","country":"Russia","lng":31.599031,"lat":67.76963},{"name":"Baza Laplandskiy Zapovednik","country":"Russia","lng":32.671675,"lat":67.660993},{"name":"Titan","country":"Russia","lng":33.734494,"lat":67.54581},{"name":"Umbozero","country":"Russia","lng":34.787079,"lat":67.42418},{"name":"Nykvåg","country":"Norway","lng":13.520496,"lat":68.979193},{"name":"Sørsand","country":"Norway","lng":14.692894,"lat":68.984942},{"name":"Leitet","country":"Norway","lng":15.865497,"lat":68.983145},{"name":"Haugli","country":"Norway","lng":18.2082,"lat":68.956932},{"name":"Holt","country":"Norway","lng":19.376753,"lat":68.932543},{"name":"Kummavuopio","country":"Sweden","lng":20.542422,"lat":68.900666},{"name":"Saarikoski","country":"Finland","lng":21.704458,"lat":68.861334},{"name":"Näkkälä","country":"Finland","lng":24.014709,"lat":68.76048},{"name":"Angeli","country":"Finland","lng":25.161513,"lat":68.699064},{"name":"Leammi","country":"Finland","lng":26.301867,"lat":68.630404},{"name":"Törmänen","country":"Finland","lng":27.435125,"lat":68.55457},{"name":"Rastimyarvi","country":"Russia","lng":29.677908,"lat":68.381692},{"name":"Nivankyul’","country":"Russia","lng":30.786287,"lat":68.284817},{"name":"Komandirovka","country":"Russia","lng":31.885279,"lat":68.181108},{"name":"Olenegorsk","country":"Russia","lng":32.974391,"lat":68.070662},{"name":"Vavibet","country":"Russia","lng":35.121179,"lat":67.82997},{"name":"Andenes","country":"Norway","lng":15.88151,"lat":69.408356},{"name":"Ballesvika","country":"Norway","lng":17.075199,"lat":69.398843},{"name":"Rossfjordstraumen","country":"Norway","lng":18.267455,"lat":69.381658},{"name":"Indre Tomasjord","country":"Norway","lng":19.457462,"lat":69.35682},{"name":"Bilto","country":"Norway","lng":21.827515,"lat":69.284305},{"name":"Mierojávri","country":"Norway","lng":23.005992,"lat":69.236708},{"name":"Suodnjo","country":"Norway","lng":24.179086,"lat":69.181618},{"name":"Máreveadji","country":"Norway","lng":25.346065,"lat":69.119095},{"name":"Väylä","country":"Finland","lng":27.658876,"lat":68.972024},{"name":"Янискоски","country":"Russia","lng":28.803379,"lat":68.887631},{"name":"Songel’skiy","country":"Russia","lng":29.939113,"lat":68.796113},{"name":"Khulkko","country":"Russia","lng":31.065495,"lat":68.697561},{"name":"Pushnoy","country":"Russia","lng":33.288048,"lat":68.479757},{"name":"Chudz’yavr","country":"Russia","lng":34.383231,"lat":68.360713},{"name":"Nivka","country":"Russia","lng":35.467089,"lat":68.235056},{"name":"Andenes","country":"Norway","lng":15.898169,"lat":69.833565},{"name":"Øyfjord","country":"Norway","lng":17.114391,"lat":69.823873},{"name":"Snarby","country":"Norway","lng":19.541408,"lat":69.781058},{"name":"Ravelseidet","country":"Norway","lng":20.750481,"lat":69.747986},{"name":"Leirbukt","country":"Norway","lng":21.955472,"lat":69.707185},{"name":"Eiby","country":"Norway","lng":23.15556,"lat":69.658703},{"name":"Kárášjohka","country":"Norway","lng":25.537848,"lat":69.538921},{"name":"Petsikko","country":"Finland","lng":26.718529,"lat":69.467755},{"name":"Kola","country":"Finland","lng":27.891269,"lat":69.389175},{"name":"Neyukhenyarvi","country":"Russia","lng":29.055387,"lat":69.303265},{"name":"Mokket","country":"Russia","lng":31.355207,"lat":69.109828},{"name":"Kilp”yavr","country":"Russia","lng":32.489727,"lat":69.002501},{"name":"Leskhoz","country":"Russia","lng":33.613264,"lat":68.888244},{"name":"Karozero","country":"Russia","lng":34.725325,"lat":68.76717},{"name":"Gammelgard","country":"Norway","lng":17.155197,"lat":70.248893},{"name":"Løksfjord","country":"Norway","lng":18.393265,"lat":70.231046},{"name":"Vannareid","country":"Norway","lng":19.628798,"lat":70.205255},{"name":"Hellnes","country":"Norway","lng":20.860887,"lat":70.171549},{"name":"Laukvik","country":"Norway","lng":23.31119,"lat":70.080565},{"name":"Flata","country":"Norway","lng":24.527687,"lat":70.023396},{"name":"Nuvvus","country":"Finland","lng":25.737312,"lat":69.958528},{"name":"Onnela","country":"Finland","lng":26.939279,"lat":69.886036},{"name":"Neiden,øvre","country":"Norway","lng":29.317259,"lat":69.718518},{"name":"Tårnet","country":"Norway","lng":30.491876,"lat":69.623679},{"name":"Staraya Titovka","country":"Russia","lng":31.656046,"lat":69.521587},{"name":"Ara","country":"Russia","lng":32.809174,"lat":69.412352},{"name":"Lodeynoye","country":"Russia","lng":35.080132,"lat":69.172912},{"name":"Porchnikha","country":"Russia","lng":36.196985,"lat":69.042948},{"name":"Nordskard","country":"Norway","lng":18.46014,"lat":70.655705},{"name":"Loppa","country":"Norway","lng":20.975914,"lat":70.59504},{"name":"Breivikbotn","country":"Norway","lng":22.227361,"lat":70.552649},{"name":"Eidvågeid","country":"Norway","lng":23.473275,"lat":70.502287},{"name":"Repparfjord","country":"Norway","lng":24.712759,"lat":70.444014},{"name":"Leirbukt","country":"Norway","lng":27.169007,"lat":70.304031},{"name":"Deanušaldi","country":"Norway","lng":28.384144,"lat":70.222488},{"name":"Andersby","country":"Norway","lng":29.589603,"lat":70.133367},{"name":"Nyhavn","country":"Norway","lng":30.784672,"lat":70.036771},{"name":"Tsypnavolok","country":"Russia","lng":33.141015,"lat":69.821595},{"name":"Verkhniy Kil’din","country":"Russia","lng":34.301092,"lat":69.703249},{"name":"Teriberskiy Mayak","country":"Russia","lng":35.448387,"lat":69.577896},{"name":"Shel’pino","country":"Russia","lng":36.582417,"lat":69.445665},{"name":"Mårøyfjord","country":"Norway","lng":27.40829,"lat":70.721722},{"name":"Jonjok","country":"Norway","lng":29.873078,"lat":70.547785},{"name":"Smelror","country":"Norway","lng":31.089319,"lat":70.449364},{"name":"Vaydaguba","country":"Russia","lng":32.293843,"lat":70.343459},{"name":"Tsypnavolok","country":"Russia","lng":33.486001,"lat":70.23019},{"name":"Olonkinbyen","country":"Svalbard and Jan Mayen","lng":-8.446575,"lat":70.572396}]},{"timestamprun":1538900558949,"nameofapi":"SMHI","countOfItems":884,"sumOfTempc":12686.2,"sumOfWind":4979.500000000003,"sumOfPressure":901726.300000001,"sumOfHumidityPer":69429,"sumOfCloudiness":62912.5,"sumOfHCloudiness":16487.5,"sumOfLCloudiness":49062.5,"sumOfMCloudiness":4000,"timeLastUpdate":1538544685,"sumoftempcdiffwithmetno":0,"longlats":[{"name":"IJmuiden aan Zee","country":"Netherlands","lng":3.618685,"lat":52.654589},{"name":"Bergen aan Zee","country":"Netherlands","lng":4.306438,"lat":52.72518},{"name":"Brekkenpolder","country":"Netherlands","lng":5.688592,"lat":52.853269},{"name":"Hoogersmilde","country":"Netherlands","lng":6.382723,"lat":52.910722},{"name":"Kopstukken","country":"Netherlands","lng":7.078708,"lat":52.963753},{"name":"De Koog","country":"Netherlands","lng":4.191712,"lat":53.144769},{"name":"De Cocksdorp","country":"Netherlands","lng":4.888882,"lat":53.211707},{"name":"Sint Jacobiparochie","country":"Netherlands","lng":5.588251,"lat":53.274221},{"name":"Zoutkamp","country":"Netherlands","lng":6.289677,"lat":53.332289},{"name":"De Koog","country":"Netherlands","lng":4.074723,"lat":53.564246},{"name":"West aan Zee","country":"Netherlands","lng":4.779182,"lat":53.631901},{"name":"Schiermonnikoog","country":"Netherlands","lng":6.194774,"lat":53.753782},{"name":"Hollum","country":"Netherlands","lng":5.381511,"lat":54.115865}]},{"timestamprun":1538900559072,"nameofapi":"SMHI","countOfItems":2584,"sumOfTempc":32616.69999999994,"sumOfWind":13136.200000000006,"sumOfPressure":2633984.699999998,"sumOfHumidityPer":203103,"sumOfCloudiness":166450,"sumOfHCloudiness":53500,"sumOfLCloudiness":134262.5,"sumOfMCloudiness":14825,"timeLastUpdate":1538544685,"sumoftempcdiffwithmetno":0,"longlats":[{"name":"Heetberg","country":"Germany","lng":7.776404,"lat":53.012342},{"name":"Everinghausen","country":"Germany","lng":9.176354,"lat":53.096126},{"name":"Niederhaverbeck","country":"Germany","lng":9.878314,"lat":53.131291},{"name":"Solchstorf","country":"Germany","lng":10.581398,"lat":53.161952},{"name":"Heiddorf","country":"Germany","lng":11.285454,"lat":53.1881},{"name":"Buschhof","country":"Germany","lng":12.695872,"lat":53.226816},{"name":"Küstrinchen","country":"Germany","lng":13.401924,"lat":53.239369},{"name":"Randowhöhe","country":"Germany","lng":14.10833,"lat":53.24738},{"name":"Wilhelmsfehn","country":"Germany","lng":7.69813,"lat":53.435},{"name":"Abbehauser Wehl","country":"Germany","lng":8.404862,"lat":53.479607},{"name":"Bei der Höhne","country":"Germany","lng":9.113065,"lat":53.51969},{"name":"Mühlenberg","country":"Germany","lng":9.822585,"lat":53.555236},{"name":"Wodenhof","country":"Germany","lng":11.244956,"lat":53.612663},{"name":"Dinnies","country":"Germany","lng":11.957492,"lat":53.634522},{"name":"Neu Basedow","country":"Germany","lng":12.670717,"lat":53.6518},{"name":"Brunn","country":"Germany","lng":13.384469,"lat":53.664491},{"name":"Ostdorf","country":"Germany","lng":6.905614,"lat":53.807962},{"name":"Spiekeroog","country":"Germany","lng":7.618284,"lat":53.857607},{"name":"Neuwerk","country":"Germany","lng":8.33263,"lat":53.902699},{"name":"Störkathen","country":"Germany","lng":9.765728,"lat":53.979155},{"name":"Steenkrütz","country":"Germany","lng":10.484161,"lat":54.010489},{"name":"Hafthagen","country":"Germany","lng":11.203635,"lat":54.037211},{"name":"Neu Hohenfelde","country":"Germany","lng":11.923986,"lat":54.059311},{"name":"Fetten-Vorstadt","country":"Germany","lng":13.366659,"lat":54.08961},{"name":"Koserow","country":"Germany","lng":14.088648,"lat":54.097797},{"name":"Ostland","country":"Germany","lng":6.097947,"lat":54.175198},{"name":"Ostdorf","country":"Germany","lng":6.816431,"lat":54.22997},{"name":"Bad Sankt Peter","country":"Germany","lng":8.25892,"lat":54.325747},{"name":"Harblek","country":"Germany","lng":8.982606,"lat":54.366714},{"name":"Bistensee","country":"Germany","lng":9.707702,"lat":54.403046},{"name":"Schönberger Strand","country":"Germany","lng":10.434043,"lat":54.434727},{"name":"Ostseebad Prerow","country":"Germany","lng":12.618851,"lat":54.501753},{"name":"Tribbevitz","country":"Germany","lng":13.34848,"lat":54.514726},{"name":"Waldhalle","country":"Germany","lng":14.078501,"lat":54.523004},{"name":"Hörnum","country":"Germany","lng":7.453644,"lat":54.702656},{"name":"Hörnum","country":"Germany","lng":8.183678,"lat":54.748749},{"name":"Klixbüll","country":"Germany","lng":8.915341,"lat":54.790172},{"name":"Westerland","country":"Germany","lng":7.36873,"lat":55.125094}]},{"timestamprun":1538900559319,"nameofapi":"SMHI","countOfItems":3060,"sumOfTempc":32119.499999999964,"sumOfWind":17238.600000000002,"sumOfPressure":3113009.7000000044,"sumOfHumidityPer":235419,"sumOfCloudiness":167450,"sumOfHCloudiness":31500,"sumOfLCloudiness":136987.5,"sumOfMCloudiness":26925,"timeLastUpdate":1538544685,"sumoftempcdiffwithmetno":0,"longlats":[{"name":"Komorówko","country":"Poland","lng":14.814934,"lat":53.250844},{"name":"Lubiesz","country":"Poland","lng":16.228108,"lat":53.244132},{"name":"Glubczyn","country":"Poland","lng":16.934365,"lat":53.233957},{"name":"Samsieczynek","country":"Poland","lng":17.640193,"lat":53.219242},{"name":"Gzin","country":"Poland","lng":18.345437,"lat":53.199991},{"name":"Nowe Konopaty","country":"Poland","lng":19.753554,"lat":53.147913},{"name":"Sławogóra Nowa","country":"Poland","lng":20.456122,"lat":53.115105},{"name":"Raki","country":"Poland","lng":21.157494,"lat":53.077801},{"name":"Mieczki Ziemaki","country":"Poland","lng":21.857521,"lat":53.036013},{"name":"Ryboły","country":"Poland","lng":23.252955,"lat":52.939051},{"name":"Babigoszcz","country":"Poland","lng":14.812912,"lat":53.676091},{"name":"Smorawina","country":"Poland","lng":15.527278,"lat":53.674996},{"name":"Chłopowo","country":"Poland","lng":16.241524,"lat":53.669305},{"name":"Sokole","country":"Poland","lng":16.955488,"lat":53.65902},{"name":"Oski Piec","country":"Poland","lng":18.381926,"lat":53.624683},{"name":"Pawłowo","country":"Poland","lng":19.094079,"lat":53.600645},{"name":"Grabowo","country":"Poland","lng":19.805308,"lat":53.572039},{"name":"Dąb","country":"Poland","lng":20.515456,"lat":53.538875},{"name":"Rupin","country":"Poland","lng":21.931889,"lat":53.458927},{"name":"Wilamówka","country":"Poland","lng":22.637868,"lat":53.412173},{"name":"Jałówka","country":"Poland","lng":23.342155,"lat":53.360922},{"name":"Łukęcin","country":"Poland","lng":14.810848,"lat":54.101338},{"name":"Błotnica","country":"Poland","lng":15.533093,"lat":54.100231},{"name":"Dretyń","country":"Poland","lng":16.977043,"lat":54.084078},{"name":"Tuszkowy","country":"Poland","lng":17.698413,"lat":54.069039},{"name":"Czarnocin","country":"Poland","lng":18.419157,"lat":54.049364},{"name":"Lasy","country":"Poland","lng":19.139111,"lat":54.025062},{"name":"Studzianka","country":"Poland","lng":20.57599,"lat":53.962615},{"name":"Szestno","country":"Poland","lng":21.292591,"lat":53.924494},{"name":"Okrągłe","country":"Poland","lng":22.007754,"lat":53.881794},{"name":"Reszki","country":"Poland","lng":22.721321,"lat":53.834532},{"name":"Ustronie Morskie","country":"Poland","lng":15.539028,"lat":54.525466},{"name":"Darłówko","country":"Poland","lng":16.269186,"lat":54.519648},{"name":"Włynkówko","country":"Poland","lng":16.999043,"lat":54.509133},{"name":"Małoszyce","country":"Poland","lng":17.728424,"lat":54.493926},{"name":"Kąty","country":"Poland","lng":19.185072,"lat":54.449461},{"name":"Gronowo","country":"Poland","lng":19.911999,"lat":54.420221},{"name":"Błaskowizna","country":"Poland","lng":22.806475,"lat":54.256831},{"name":"Jarosławiec","country":"Poland","lng":16.283454,"lat":54.944817},{"name":"Miedzno","country":"Poland","lng":17.759065,"lat":54.918806},{"name":"Cetniewo","country":"Poland","lng":18.495955,"lat":54.89869},{"name":"Bór","country":"Poland","lng":19.231996,"lat":54.873843},{"name":"Czołpino","country":"Poland","lng":17.044448,"lat":55.359231},{"name":"Miedzno","country":"Poland","lng":17.790361,"lat":55.343678},{"name":"Bytonia","country":"Poland","lng":18.535579,"lat":55.323334}]},{"timestamprun":1538900559537,"nameofapi":"SMHI","countOfItems":2176,"sumOfTempc":18054.6,"sumOfWind":10540.99999999999,"sumOfPressure":2206950.099999998,"sumOfHumidityPer":173217,"sumOfCloudiness":143087.5,"sumOfHCloudiness":40275,"sumOfLCloudiness":113875,"sumOfMCloudiness":47912.5,"timeLastUpdate":1538544685,"sumoftempcdiffwithmetno":0,"longlats":[{"name":"Brovsk","country":"Belarus","lng":23.948075,"lat":52.883912},{"name":"Vilyanuv","country":"Belarus","lng":24.641275,"lat":52.82436},{"name":"Ozerets","country":"Belarus","lng":25.332419,"lat":52.760417},{"name":"Lipsk","country":"Belarus","lng":26.708003,"lat":52.619449},{"name":"Rakhovichi","country":"Belarus","lng":27.392184,"lat":52.542473},{"name":"Zhukevichi","country":"Belarus","lng":24.044603,"lat":53.305192},{"name":"Oshnarovichi","country":"Belarus","lng":25.443406,"lat":53.18038},{"name":"Litva","country":"Belarus","lng":26.139481,"lat":53.111344},{"name":"Vesëlaya","country":"Belarus","lng":26.833157,"lat":53.03792},{"name":"Kirava","country":"Belarus","lng":27.524301,"lat":52.960136},{"name":"Striyevka","country":"Belarus","lng":24.143054,"lat":53.726392},{"name":"Voloka","country":"Belarus","lng":24.850919,"lat":53.665556},{"name":"Yatsuki","country":"Belarus","lng":25.556587,"lat":53.600238},{"name":"Veletovo","country":"Belarus","lng":26.259914,"lat":53.530464},{"name":"Zadoshchen’ye","country":"Belarus","lng":27.658996,"lat":53.377649},{"name":"Kivantsy","country":"Belarus","lng":24.958905,"lat":54.086012},{"name":"Syabryn’ Vtoroye","country":"Belarus","lng":26.382755,"lat":53.94946},{"name":"Lisovshchina","country":"Belarus","lng":27.090908,"lat":53.874457},{"name":"Pryvol’ny","country":"Belarus","lng":27.796357,"lat":53.795007},{"name":"Varni","country":"Belarus","lng":25.789847,"lat":54.439623},{"name":"Sivitsa","country":"Belarus","lng":26.508089,"lat":54.368329},{"name":"Vel’ki Bur","country":"Belarus","lng":27.223681,"lat":54.292513},{"name":"Kyemyelishki","country":"Belarus","lng":25.910092,"lat":54.859143},{"name":"Sivtsy","country":"Belarus","lng":27.359178,"lat":54.71042},{"name":"Govorets","country":"Belarus","lng":28.079459,"lat":54.629238},{"name":"Volod’ki","country":"Belarus","lng":26.766599,"lat":55.205663},{"name":"Konstantinovo","country":"Belarus","lng":27.497496,"lat":55.128172},{"name":"Krovnitsa","country":"Belarus","lng":28.225402,"lat":55.046098},{"name":"Rozhevo","country":"Belarus","lng":26.899967,"lat":55.624119},{"name":"Verkhniye Morozy","country":"Belarus","lng":28.374414,"lat":55.46278},{"name":"Lipovki","country":"Belarus","lng":27.783013,"lat":55.963191},{"name":"Yakubovo","country":"Belarus","lng":28.526608,"lat":55.879278}]},{"timestamprun":1538900559768,"nameofapi":"SMHI","countOfItems":2856,"sumOfTempc":33790.999999999956,"sumOfWind":18641.59999999998,"sumOfPressure":2904377.399999996,"sumOfHumidityPer":227597,"sumOfCloudiness":195737.5,"sumOfHCloudiness":78925,"sumOfLCloudiness":143112.5,"sumOfMCloudiness":43425,"timeLastUpdate":1538544685,"sumoftempcdiffwithmetno":0,"longlats":[{"name":"Gedser","country":"Denmark","lng":11.889787,"lat":54.484091},{"name":"Olde","country":"Denmark","lng":10.382876,"lat":54.858944},{"name":"Købelev","country":"Denmark","lng":11.118403,"lat":54.886265},{"name":"Egelev","country":"Denmark","lng":11.854871,"lat":54.90886},{"name":"Busene","country":"Denmark","lng":12.592102,"lat":54.926721},{"name":"Rønne","country":"Denmark","lng":14.068141,"lat":54.948211},{"name":"Boderne","country":"Denmark","lng":14.806592,"lat":54.951832},{"name":"Snogebæk","country":"Denmark","lng":15.545089,"lat":54.9507},{"name":"Vodder","country":"Denmark","lng":8.846653,"lat":55.213592},{"name":"Grarup","country":"Denmark","lng":9.58797,"lat":55.250742},{"name":"Radby","country":"Denmark","lng":10.330621,"lat":55.283139},{"name":"Korsør","country":"Denmark","lng":11.074428,"lat":55.310769},{"name":"Sigerslev","country":"Denmark","lng":12.564781,"lat":55.351683},{"name":"Sandvig","country":"Denmark","lng":14.804395,"lat":55.377079},{"name":"Blåvand","country":"Denmark","lng":7.282,"lat":55.547472},{"name":"Vejers Strand","country":"Denmark","lng":8.02837,"lat":55.594609},{"name":"Starup","country":"Denmark","lng":8.776487,"lat":55.636973},{"name":"Søndermarken","country":"Denmark","lng":9.526171,"lat":55.674545},{"name":"Overbjerg","country":"Denmark","lng":11.029502,"lat":55.735256},{"name":"Brønde","country":"Denmark","lng":11.782775,"lat":55.758368},{"name":"Fortunen","country":"Denmark","lng":12.536868,"lat":55.776638},{"name":"Hvide Sande","country":"Denmark","lng":7.193385,"lat":55.969788},{"name":"Sønder Lyngvig","country":"Denmark","lng":7.948181,"lat":56.017463},{"name":"Asklev","country":"Denmark","lng":9.463019,"lat":56.098316},{"name":"Østerågård","country":"Denmark","lng":10.222682,"lat":56.131459},{"name":"Elsegårde","country":"Denmark","lng":10.983587,"lat":56.159727},{"name":"Liseleje","country":"Denmark","lng":11.745539,"lat":56.183106},{"name":"Sønderby Gårde","country":"Denmark","lng":7.866218,"lat":56.440264},{"name":"Østerby","country":"Denmark","lng":8.631498,"lat":56.483609},{"name":"Kølsen","country":"Denmark","lng":9.398461,"lat":56.522055},{"name":"Tvede","country":"Denmark","lng":10.16691,"lat":56.555583},{"name":"Anholt","country":"Denmark","lng":11.707469,"lat":56.607833},{"name":"Agger","country":"Denmark","lng":7.782411,"lat":56.86301},{"name":"Beersted","country":"Denmark","lng":8.556554,"lat":56.906862},{"name":"Sejlflod","country":"Denmark","lng":10.109874,"lat":56.979682},{"name":"Tørkeriet","country":"Denmark","lng":10.88864,"lat":57.008616},{"name":"Hanstholm","country":"Denmark","lng":8.479891,"lat":57.330069},{"name":"Pirupshvarre","country":"Denmark","lng":9.264907,"lat":57.369427},{"name":"Ilbro","country":"Denmark","lng":10.051523,"lat":57.403754},{"name":"Vesterø Havn","country":"Denmark","lng":10.839525,"lat":57.433032},{"name":"Tornby Strand","country":"Denmark","lng":9.195793,"lat":57.793059},{"name":"Østerby","country":"Denmark","lng":10.789258,"lat":57.857429}]},{"timestamprun":1538900559924,"nameofapi":"SMHI","countOfItems":6737,"sumOfTempc":24769.100000000053,"sumOfWind":28779.499999999945,"sumOfPressure":6785291.1000000015,"sumOfHumidityPer":555801,"sumOfCloudiness":392012.5,"sumOfHCloudiness":212250,"sumOfLCloudiness":249537.5,"sumOfMCloudiness":167450,"timeLastUpdate":1538546388,"sumoftempcdiffwithmetno":0,"longlats":[{"name":"Bagrationovsk","country":"Russia","lng":20.637767,"lat":54.386323},{"name":"Krymskoye","country":"Russia","lng":21.362212,"lat":54.347782},{"name":"Rakushino","country":"Russia","lng":19.967014,"lat":54.844275},{"name":"Drozkino","country":"Russia","lng":21.433283,"lat":54.771029},{"name":"Berezino","country":"Russia","lng":22.164191,"lat":54.72738},{"name":"Mayak","country":"Russia","lng":20.023198,"lat":55.268305},{"name":"Izgary","country":"Russia","lng":20.765237,"lat":55.233643},{"name":"Polyakovo","country":"Russia","lng":28.081118,"lat":56.797521},{"name":"Posadnikovo","country":"Russia","lng":28.841021,"lat":56.71169},{"name":"Tryapino","country":"Russia","lng":28.235192,"lat":57.214411},{"name":"Rudino","country":"Russia","lng":29.003493,"lat":57.12759},{"name":"Bel’sko","country":"Russia","lng":27.61222,"lat":57.714067},{"name":"Lyutyye Bolota","country":"Russia","lng":29.169656,"lat":57.543275},{"name":"Balsovo","country":"Russia","lng":27.764589,"lat":58.131546},{"name":"Urochishche Kuznetsovo","country":"Russia","lng":28.554038,"lat":58.047605},{"name":"Zarech’ye","country":"Russia","lng":29.339653,"lat":57.958736},{"name":"Kazurino","country":"Russia","lng":27.920571,"lat":58.54884},{"name":"Zagor’ye","country":"Russia","lng":28.719092,"lat":58.463893},{"name":"Novoivanovskoye","country":"Russia","lng":28.888099,"lat":58.879964},{"name":"Dar’ino","country":"Russia","lng":29.691757,"lat":58.788954},{"name":"Zakhon’ye Vtoroye","country":"Russia","lng":28.243964,"lat":59.382838},{"name":"Volpi","country":"Russia","lng":29.061222,"lat":59.295808},{"name":"Bekovo","country":"Russia","lng":29.874189,"lat":59.20369},{"name":"Kiyskinkyulya","country":"Russia","lng":26.745317,"lat":59.960131},{"name":"Lavansaari","country":"Russia","lng":27.580512,"lat":59.882445},{"name":"Zales’ye","country":"Russia","lng":28.41169,"lat":59.799527},{"name":"Pudost’","country":"Russia","lng":30.061106,"lat":59.618165},{"name":"Krasnoostrovskiy","country":"Russia","lng":28.583659,"lat":60.215996},{"name":"Pesochnoye","country":"Russia","lng":29.420492,"lat":60.126782},{"name":"Kolomyagi","country":"Russia","lng":30.252691,"lat":60.032368},{"name":"Matrosovo","country":"Russia","lng":28.760052,"lat":60.632237},{"name":"Silino","country":"Russia","lng":29.607006,"lat":60.541891},{"name":"Gory","country":"Russia","lng":29.798365,"lat":60.956733},{"name":"Yerakko","country":"Russia","lng":30.650657,"lat":60.859907},{"name":"Tervayarvi","country":"Russia","lng":29.994778,"lat":61.371297},{"name":"Uusi-Jerusalem","country":"Russia","lng":30.85746,"lat":61.273219},{"name":"Yanaslakhti","country":"Russia","lng":31.069776,"lat":61.686209},{"name":"Tsyakinsel’kya","country":"Russia","lng":31.287849,"lat":62.09886},{"name":"Kasisvaran","country":"Russia","lng":31.7423,"lat":62.923089},{"name":"Kibashnavolok","country":"Russia","lng":31.060849,"lat":63.439479},{"name":"Tumba","country":"Russia","lng":31.979236,"lat":63.334634},{"name":"Voloma","country":"Russia","lng":32.223045,"lat":63.745773},{"name":"Byk-Navolok","country":"Russia","lng":30.581829,"lat":64.366292},{"name":"Bol’shozero","country":"Russia","lng":31.531451,"lat":64.264309},{"name":"Merguba","country":"Russia","lng":32.474048,"lat":64.156489},{"name":"Nyauvara","country":"Russia","lng":29.845409,"lat":64.877078},{"name":"Riinoyarvi","country":"Russia","lng":30.814932,"lat":64.779596},{"name":"Piz’maguba","country":"Russia","lng":31.777434,"lat":64.676132},{"name":"Karpivaara","country":"Russia","lng":30.072216,"lat":65.291454},{"name":"Shonga","country":"Russia","lng":32.031001,"lat":65.087534},{"name":"Panozero","country":"Russia","lng":32.99903,"lat":64.976566},{"name":"Topozero","country":"Russia","lng":30.306263,"lat":65.705477},{"name":"Bol’shoye Ozero","country":"Russia","lng":31.303246,"lat":65.605053},{"name":"Karelaksha","country":"Russia","lng":32.292527,"lat":65.498494},{"name":"Nizhneye Kumozero","country":"Russia","lng":33.273758,"lat":65.385882},{"name":"Olanga","country":"Russia","lng":30.547923,"lat":66.119131},{"name":"Okunëva Guba","country":"Russia","lng":31.559204,"lat":66.017167},{"name":"Yelmanga","country":"Russia","lng":33.557185,"lat":65.794683},{"name":"Jyrkämä","country":"Russia","lng":29.763536,"lat":66.62957},{"name":"Kyyrölä","country":"Russia","lng":31.82357,"lat":66.428842},{"name":"Nizhneye Kotozero","country":"Russia","lng":32.84108,"lat":66.318995},{"name":"Keret’","country":"Russia","lng":33.849747,"lat":66.202942},{"name":"Niskasuvanta","country":"Russia","lng":30.006113,"lat":67.043976},{"name":"Koproyva","country":"Russia","lng":31.05569,"lat":66.945248},{"name":"Dolgiy","country":"Russia","lng":32.096785,"lat":66.840055},{"name":"Kovda","country":"Russia","lng":33.128988,"lat":66.728486},{"name":"Slyuda","country":"Russia","lng":30.257114,"lat":67.458001},{"name":"Rikolatva","country":"Russia","lng":31.322675,"lat":67.357668},{"name":"Pustaya Guba","country":"Russia","lng":33.42662,"lat":67.137434},{"name":"Muna","country":"Russia","lng":34.46418,"lat":67.017723},{"name":"Avvaguba","country":"Russia","lng":31.599031,"lat":67.76963},{"name":"Baza Laplandskiy Zapovednik","country":"Russia","lng":32.671675,"lat":67.660993},{"name":"Titan","country":"Russia","lng":33.734494,"lat":67.54581},{"name":"Umbozero","country":"Russia","lng":34.787079,"lat":67.42418},{"name":"Rastimyarvi","country":"Russia","lng":29.677908,"lat":68.381692},{"name":"Nivankyul’","country":"Russia","lng":30.786287,"lat":68.284817},{"name":"Komandirovka","country":"Russia","lng":31.885279,"lat":68.181108},{"name":"Olenegorsk","country":"Russia","lng":32.974391,"lat":68.070662},{"name":"Vavibet","country":"Russia","lng":35.121179,"lat":67.82997},{"name":"Янискоски","country":"Russia","lng":28.803379,"lat":68.887631},{"name":"Songel’skiy","country":"Russia","lng":29.939113,"lat":68.796113},{"name":"Khulkko","country":"Russia","lng":31.065495,"lat":68.697561},{"name":"Pushnoy","country":"Russia","lng":33.288048,"lat":68.479757},{"name":"Chudz’yavr","country":"Russia","lng":34.383231,"lat":68.360713},{"name":"Nivka","country":"Russia","lng":35.467089,"lat":68.235056},{"name":"Neyukhenyarvi","country":"Russia","lng":29.055387,"lat":69.303265},{"name":"Mokket","country":"Russia","lng":31.355207,"lat":69.109828},{"name":"Kilp”yavr","country":"Russia","lng":32.489727,"lat":69.002501},{"name":"Leskhoz","country":"Russia","lng":33.613264,"lat":68.888244},{"name":"Karozero","country":"Russia","lng":34.725325,"lat":68.76717},{"name":"Staraya Titovka","country":"Russia","lng":31.656046,"lat":69.521587},{"name":"Ara","country":"Russia","lng":32.809174,"lat":69.412352},{"name":"Lodeynoye","country":"Russia","lng":35.080132,"lat":69.172912},{"name":"Porchnikha","country":"Russia","lng":36.196985,"lat":69.042948},{"name":"Tsypnavolok","country":"Russia","lng":33.141015,"lat":69.821595},{"name":"Verkhniy Kil’din","country":"Russia","lng":34.301092,"lat":69.703249},{"name":"Teriberskiy Mayak","country":"Russia","lng":35.448387,"lat":69.577896},{"name":"Shel’pino","country":"Russia","lng":36.582417,"lat":69.445665},{"name":"Vaydaguba","country":"Russia","lng":32.293843,"lat":70.343459},{"name":"Tsypnavolok","country":"Russia","lng":33.486001,"lat":70.23019}]},{"timestamprun":1538900560189,"nameofapi":"SMHI","countOfItems":1768,"sumOfTempc":14791.599999999977,"sumOfWind":8660.400000000009,"sumOfPressure":1791733.1999999986,"sumOfHumidityPer":143264,"sumOfCloudiness":105312.5,"sumOfHCloudiness":43537.5,"sumOfLCloudiness":76975,"sumOfMCloudiness":41400,"timeLastUpdate":1538544685,"sumoftempcdiffwithmetno":0,"longlats":[{"name":"Klapotkė","country":"Lithuania","lng":23.52597,"lat":54.204457},{"name":"Bingeliai","country":"Lithuania","lng":24.243498,"lat":54.14751},{"name":"Skardupiai","country":"Lithuania","lng":22.89339,"lat":54.679069},{"name":"Jasenava","country":"Lithuania","lng":23.620716,"lat":54.626117},{"name":"Žvėrynas","country":"Lithuania","lng":25.069102,"lat":54.50637},{"name":"Girininkai","country":"Lithuania","lng":21.505855,"lat":55.194234},{"name":"Adomiškiai","country":"Lithuania","lng":22.244879,"lat":55.150095},{"name":"Godėnai","country":"Lithuania","lng":23.717447,"lat":55.047701},{"name":"Svirplionys","country":"Lithuania","lng":24.450654,"lat":54.989487},{"name":"Kazimieravas","country":"Lithuania","lng":25.181589,"lat":54.926626},{"name":"Karklė","country":"Lithuania","lng":20.080595,"lat":55.692308},{"name":"Kopgalis","country":"Lithuania","lng":20.831026,"lat":55.657251},{"name":"Stoniai","country":"Lithuania","lng":22.327294,"lat":55.572756},{"name":"Skiručiai","country":"Lithuania","lng":23.07277,"lat":55.523353},{"name":"Piliamantas","country":"Lithuania","lng":23.816236,"lat":55.469207},{"name":"Užulėnis","country":"Lithuania","lng":24.557519,"lat":55.410339},{"name":"Obely Ragas","country":"Lithuania","lng":26.032865,"lat":55.278541},{"name":"Žeimiai","country":"Lithuania","lng":21.655736,"lat":56.04051},{"name":"Juodsodė","country":"Lithuania","lng":22.411504,"lat":55.99536},{"name":"Švendrė","country":"Lithuania","lng":23.165372,"lat":55.945393},{"name":"Užubaliai II","country":"Lithuania","lng":24.666686,"lat":55.831097},{"name":"Kurkliečiai","country":"Lithuania","lng":25.413776,"lat":55.766815},{"name":"Šunelė","country":"Lithuania","lng":26.158259,"lat":55.697813},{"name":"Žagariškiai","country":"Lithuania","lng":23.260015,"lat":56.367363},{"name":"Aleknai","country":"Lithuania","lng":24.77824,"lat":56.251755},{"name":"Ilzenbergas","country":"Lithuania","lng":25.533656,"lat":56.18674}]},{"timestamprun":1538900560523,"nameofapi":"SMHI","countOfItems":2040,"sumOfTempc":17021.99999999998,"sumOfWind":11195.100000000006,"sumOfPressure":2064148.6000000022,"sumOfHumidityPer":163599,"sumOfCloudiness":131200,"sumOfHCloudiness":61862.5,"sumOfLCloudiness":98950,"sumOfMCloudiness":50612.5,"timeLastUpdate":1538544685,"sumoftempcdiffwithmetno":0,"longlats":[{"name":"Nida","country":"Latvia","lng":20.898255,"lat":56.080823},{"name":"Karosta","country":"Latvia","lng":20.199212,"lat":56.540231},{"name":"Liepāja","country":"Latvia","lng":20.966979,"lat":56.504359},{"name":"Asīte","country":"Latvia","lng":21.733165,"lat":56.463578},{"name":"Juknišķi","country":"Latvia","lng":24.020299,"lat":56.311971},{"name":"Peipiņi","country":"Latvia","lng":27.036213,"lat":56.042428},{"name":"Akmensrags","country":"Latvia","lng":20.260533,"lat":56.964148},{"name":"Soldenieki","country":"Latvia","lng":21.812338,"lat":56.886596},{"name":"Jaunvarieba","country":"Latvia","lng":22.585578,"lat":56.84039},{"name":"Apšupe","country":"Latvia","lng":23.356778,"lat":56.789259},{"name":"Mellupi","country":"Latvia","lng":24.12574,"lat":56.733224},{"name":"Stukmaņi","country":"Latvia","lng":25.656189,"lat":56.606547},{"name":"Atašiene","country":"Latvia","lng":26.417306,"lat":56.535961},{"name":"Losi","country":"Latvia","lng":27.175445,"lat":56.460583},{"name":"Kušneri","country":"Latvia","lng":27.930433,"lat":56.380445},{"name":"Akmensrags","country":"Latvia","lng":20.323264,"lat":57.388035},{"name":"Ostnieki","country":"Latvia","lng":21.109145,"lat":57.351311},{"name":"Dzirciems","country":"Latvia","lng":21.893324,"lat":57.309563},{"name":"Laidze","country":"Latvia","lng":22.675592,"lat":57.262812},{"name":"Gauja","country":"Latvia","lng":24.23357,"lat":57.154385},{"name":"Myza Kartuzhi","country":"Latvia","lng":25.008879,"lat":57.092761},{"name":"Grineni","country":"Latvia","lng":25.781476,"lat":57.026231},{"name":"Indrāni","country":"Latvia","lng":26.55117,"lat":56.954826},{"name":"Ovīši","country":"Latvia","lng":21.182712,"lat":57.774725},{"name":"Aizklaņi","country":"Latvia","lng":22.767693,"lat":57.685167},{"name":"Ķurmrags","country":"Latvia","lng":24.343884,"lat":57.575452},{"name":"Mazbrenguļi","country":"Latvia","lng":25.128161,"lat":57.513099},{"name":"Jaunzemji","country":"Latvia","lng":26.688076,"lat":57.373545},{"name":"Strauti","country":"Latvia","lng":27.463327,"lat":57.296409},{"name":"Virķēni","country":"Latvia","lng":25.250223,"lat":57.933323}]},{"timestamprun":1538900560855,"nameofapi":"SMHI","countOfItems":12750,"sumOfTempc":54438.09999999969,"sumOfWind":64827.80000000021,"sumOfPressure":12867367.000000015,"sumOfHumidityPer":1041182,"sumOfCloudiness":1030012.5,"sumOfHCloudiness":634600,"sumOfLCloudiness":695062.5,"sumOfMCloudiness":499037.5,"timeLastUpdate":1538546388,"sumoftempcdiffwithmetno":0,"longlats":[{"name":"Våge","country":"Norway","lng":6.818599,"lat":57.658374},{"name":"Ytre Farestad","country":"Norway","lng":7.608972,"lat":57.708327},{"name":"Ulvøysund","country":"Norway","lng":8.401442,"lat":57.753229},{"name":"Midtbrød","country":"Norway","lng":5.127278,"lat":57.963999},{"name":"Nesvåg","country":"Norway","lng":5.922039,"lat":58.024698},{"name":"Rødland østre","country":"Norway","lng":6.719413,"lat":58.080338},{"name":"Hauge","country":"Norway","lng":7.519185,"lat":58.130893},{"name":"Myrene","country":"Norway","lng":9.125038,"lat":58.216652},{"name":"Lyngør","country":"Norway","lng":9.930667,"lat":58.251813},{"name":"Obrestad","country":"Norway","lng":5.006774,"lat":58.384473},{"name":"Vatnamoholmane","country":"Norway","lng":5.810957,"lat":58.445907},{"name":"Kylland","country":"Norway","lng":7.427243,"lat":58.553395},{"name":"Lauvrak","country":"Norway","lng":8.238893,"lat":58.599397},{"name":"Kirkemyren","country":"Norway","lng":9.052573,"lat":58.640205},{"name":"Jomfruland","country":"Norway","lng":9.868048,"lat":58.675799},{"name":"Utsira","country":"Norway","lng":4.072586,"lat":58.737498},{"name":"Soma","country":"Norway","lng":5.697184,"lat":58.867018},{"name":"Øvstabøstølen","country":"Norway","lng":6.513826,"lat":58.924027},{"name":"Langeid","country":"Norway","lng":7.333056,"lat":58.97583},{"name":"Kilegrend","country":"Norway","lng":8.154637,"lat":59.022401},{"name":"Langangen","country":"Norway","lng":9.803887,"lat":59.099753},{"name":"Nord Måkerøy","country":"Norway","lng":10.631061,"lat":59.130495},{"name":"Asak","country":"Norway","lng":11.459597,"lat":59.155924},{"name":"Utsira","country":"Norway","lng":3.936404,"lat":59.156905},{"name":"Utsira","country":"Norway","lng":4.756924,"lat":59.225069},{"name":"Falkeid","country":"Norway","lng":5.580608,"lat":59.288026},{"name":"Vadla","country":"Norway","lng":6.407224,"lat":59.345744},{"name":"Dalen","country":"Norway","lng":8.068284,"lat":59.445349},{"name":"Kasin","country":"Norway","lng":8.902232,"lat":59.487184},{"name":"Passebekk","country":"Norway","lng":9.73812,"lat":59.523675},{"name":"Fuglebakk","country":"Norway","lng":10.57569,"lat":59.554805},{"name":"Geitung","country":"Norway","lng":4.627332,"lat":59.64518},{"name":"Markhus","country":"Norway","lng":6.297941,"lat":59.767373},{"name":"Viviki","country":"Norway","lng":7.13757,"lat":59.820486},{"name":"Hovden","country":"Norway","lng":7.979743,"lat":59.868239},{"name":"Rollag","country":"Norway","lng":8.824201,"lat":59.910606},{"name":"Lommedalen","country":"Norway","lng":10.518906,"lat":59.979091},{"name":"Bøss","country":"Norway","lng":11.36861,"lat":60.005173},{"name":"Nordre Ilag","country":"Norway","lng":12.219515,"lat":60.025793},{"name":"Vikso","country":"Norway","lng":4.494456,"lat":60.065161},{"name":"Røtinga","country":"Norway","lng":5.338574,"lat":60.129717},{"name":"Årvik","country":"Norway","lng":6.185864,"lat":60.188908},{"name":"Hjølmo","country":"Norway","lng":7.036068,"lat":60.242702},{"name":"Uvdal","country":"Norway","lng":8.744154,"lat":60.333981},{"name":"Gulsvik","country":"Norway","lng":9.60149,"lat":60.371416},{"name":"Askim","country":"Norway","lng":10.460648,"lat":60.403353},{"name":"Lønlifallet","country":"Norway","lng":11.321344,"lat":60.429773},{"name":"Herdleværet","country":"Norway","lng":4.358153,"lat":60.485005},{"name":"Litlebergen","country":"Norway","lng":5.21286,"lat":60.550391},{"name":"Mjølfjell","country":"Norway","lng":6.931916,"lat":60.664838},{"name":"Eggjareir","country":"Norway","lng":7.795721,"lat":60.713834},{"name":"Sjauset","country":"Norway","lng":8.662004,"lat":60.757307},{"name":"Brattrudgrenda","country":"Norway","lng":9.530477,"lat":60.795232},{"name":"Ringnes","country":"Norway","lng":11.272827,"lat":60.854356},{"name":"Risberget","country":"Norway","lng":12.146106,"lat":60.87552},{"name":"Eivindvik","country":"Norway","lng":5.083835,"lat":60.970944},{"name":"Ystrebø","country":"Norway","lng":5.952835,"lat":61.031684},{"name":"Fresvik","country":"Norway","lng":6.824998,"lat":61.08689},{"name":"Naddvik","country":"Norway","lng":7.700035,"lat":61.136533},{"name":"Liomsætra","country":"Norway","lng":9.45756,"lat":61.21901},{"name":"Smedpersætra","country":"Norway","lng":10.339446,"lat":61.251796},{"name":"Strandsætra","country":"Norway","lng":11.223002,"lat":61.278921},{"name":"Hovi","country":"Norway","lng":12.107919,"lat":61.300368},{"name":"Bulandet","country":"Norway","lng":4.074667,"lat":61.324259},{"name":"Kjørrvik","country":"Norway","lng":4.951352,"lat":61.39137},{"name":"Steinen","country":"Norway","lng":5.831622,"lat":61.452915},{"name":"Bjørk","country":"Norway","lng":7.601753,"lat":61.559162},{"name":"Visdalen","country":"Norway","lng":8.491012,"lat":61.603801},{"name":"Bilbøn","country":"Norway","lng":9.382653,"lat":61.642747},{"name":"Brettninga","country":"Norway","lng":10.276361,"lat":61.675976},{"name":"Nymoen","country":"Norway","lng":12.068682,"lat":61.725204},{"name":"Kvanhovden","country":"Norway","lng":3.927162,"lat":61.743656},{"name":"Isane","country":"Norway","lng":5.707088,"lat":61.874036},{"name":"Faleide","country":"Norway","lng":6.602358,"lat":61.930732},{"name":"Grotli","country":"Norway","lng":7.500758,"lat":61.981719},{"name":"Sausæter","country":"Norway","lng":8.401968,"lat":62.026965},{"name":"Grimsbu","country":"Norway","lng":10.211519,"lat":62.100125},{"name":"Finnstad","country":"Norway","lng":11.119194,"lat":62.127994},{"name":"Elgà","country":"Norway","lng":12.028349,"lat":62.15003},{"name":"Ervik","country":"Norway","lng":4.675382,"lat":62.23182},{"name":"Tarberg","country":"Norway","lng":5.579082,"lat":62.295041},{"name":"Hundeidvik","country":"Norway","lng":6.486369,"lat":62.352513},{"name":"Ormheim","country":"Norway","lng":8.310412,"lat":62.45007},{"name":"Gjøra","country":"Norway","lng":9.226499,"lat":62.490093},{"name":"Yset","country":"Norway","lng":10.144838,"lat":62.524244},{"name":"Vangsgjelta","country":"Norway","lng":11.065079,"lat":62.5525},{"name":"Årvik","country":"Norway","lng":4.531558,"lat":62.651831},{"name":"Steinshamn","country":"Norway","lng":6.367074,"lat":62.774194},{"name":"Malmefjorden","country":"Norway","lng":7.290118,"lat":62.826602},{"name":"Stølsgrenda","country":"Norway","lng":8.216228,"lat":62.873114},{"name":"Røv","country":"Norway","lng":9.145052,"lat":62.913698},{"name":"Gilset","country":"Norway","lng":11.009399,"lat":62.976984},{"name":"Nedalshytta","country":"Norway","lng":11.944185,"lat":62.999643},{"name":"Ulla","country":"Norway","lng":5.312,"lat":63.136682},