[
  {
    "name": "Reykjavík",
    "lat": 64.145981,
    "lng": -21.942238
  },
  {
    "name": "Stykkishólmur",
    "lat": 65.074258,
    "lng": -22.730295
  },
  {
    "name": "Bolungarvík",
    "lat": 66.157550,
    "lng": -23.250727
  },
  {
    "name": "Akureyri",
    "lat": 65.688492,
    "lng": -18.126169
  },
  {
    "name": "Egilsstaðir",
    "lat": 65.262041,
    "lng": -14.403526
  },
  {
    "name": "Höfn",
    "lat": 64.253265,
    "lng": -15.208044
  },
  {
    "name": "Vík í Mýrdal",
    "lat": 63.417909,
    "lng": -19.001245
  },
  {
    "name": "Keflavík",
    "lat": 63.999769,
    "lng": -22.556537
  },
  {
    "name": "Vestmannaeyjar",
    "lat": 63.440101,
    "lng": -20.278590
  },
  {
    "name": "Kirkjubæjarklaustur",
    "lat": 63.793065,
    "lng": -18.041859
  }
]