[
  {
    "location": {
      "name": "Sokcho",
      "lat": 37.56829,
      "lng": 126.99778
    },
    "weather": {
      "timeStamp": "September 28th 2018, 12:28:37 am",
      "timeKorea": "September 28th 2018, 7:28:37 am",
      "tempratureC": "13.8",
      "cloudsPercent": 80,
      "humidityPercent": "74",
      "windSpeedMS": "1.9",
      "windDir": "W",
      "pressureHPA": "1020.1",
      "visibilityKM": "20",
      "description": "Most Cloudy"
    }
  },
  {
    "location": {
      "name": "Bukchuncheon",
      "lat": 37.56829,
      "lng": 126.99778
    },
    "weather": {
      "timeStamp": "September 28th 2018, 12:28:39 am",
      "timeKorea": "September 28th 2018, 7:28:39 am",
      "tempratureC": "8.9",
      "cloudsPercent": 60,
      "humidityPercent": "93",
      "windSpeedMS": "0.2",
      "windDir": "-",
      "pressureHPA": "1021.2",
      "visibilityKM": "20",
      "description": "Most Cloudy"
    }
  },
  {
    "location": {
      "name": "Cheorwon",
      "lat": 37.56829,
      "lng": 126.99778
    },
    "weather": {
      "timeStamp": "September 28th 2018, 12:28:41 am",
      "timeKorea": "September 28th 2018, 7:28:41 am",
      "tempratureC": "8.4",
      "cloudsPercent": 70,
      "humidityPercent": "99",
      "windSpeedMS": "0.5",
      "windDir": "NE",
      "pressureHPA": "1021.0",
      "visibilityKM": "19.87",
      "description": "Most Cloudy"
    }
  },
  {
    "location": {
      "name": "Dongducheon",
      "lat": 37.93965,
      "lng": 127.06178
    },
    "weather": {
      "timeStamp": "September 28th 2018, 12:28:43 am",
      "timeKorea": "September 28th 2018, 7:28:43 am",
      "tempratureC": "10.5",
      "cloudsPercent": 90,
      "humidityPercent": "86",
      "windSpeedMS": "1.0",
      "windDir": "NNE",
      "pressureHPA": "1020.3",
      "visibilityKM": "2.89",
      "description": "Cloudy"
    }
  },
  {
    "location": {
      "name": "Paju",
      "lat": 58.33545,
      "lng": 26.3169
    },
    "weather": {
      "timeStamp": "September 28th 2018, 12:28:45 am",
      "timeKorea": "September 28th 2018, 7:28:45 am",
      "tempratureC": "10.7",
      "cloudsPercent": 100,
      "humidityPercent": "93",
      "windSpeedMS": "0.4",
      "windDir": "-",
      "pressureHPA": "1019.9",
      "visibilityKM": "23.34",
      "description": "Cloudy"
    }
  },
  {
    "location": {
      "name": "Daegwallyeong",
      "lat": 37.56829,
      "lng": 126.99778
    },
    "weather": {
      "timeStamp": "September 28th 2018, 12:28:47 am",
      "timeKorea": "September 28th 2018, 7:28:47 am",
      "tempratureC": "3.6",
      "cloudsPercent": 90,
      "humidityPercent": "100",
      "windSpeedMS": "0.0",
      "windDir": "-",
      "pressureHPA": "1023.8",
      "visibilityKM": "0.34",
      "description": "Cloudy"
    }
  },
  {
    "location": {
      "name": "Baengnyeongdo",
      "lat": 37.56829,
      "lng": 126.99778
    },
    "weather": {
      "timeStamp": "September 28th 2018, 12:28:49 am",
      "timeKorea": "September 28th 2018, 7:28:49 am",
      "tempratureC": "16.3",
      "cloudsPercent": 100,
      "humidityPercent": "76",
      "windSpeedMS": "3.2",
      "windDir": "ESE",
      "pressureHPA": "1016.9",
      "visibilityKM": "48.98",
      "description": "Cloudy"
    }
  },
  {
    "location": {
      "name": "Bukgangneung",
      "lat": 37.56829,
      "lng": 126.99778
    },
    "weather": {
      "timeStamp": "September 28th 2018, 12:28:51 am",
      "timeKorea": "September 28th 2018, 7:28:51 am",
      "tempratureC": "13.5",
      "cloudsPercent": 70,
      "humidityPercent": "79",
      "windSpeedMS": "1.0",
      "windDir": "SSW",
      "pressureHPA": "1020.1",
      "visibilityKM": "20",
      "description": "Most Cloudy"
    }
  },
  {
    "location": {
      "name": "Gangneung",
      "lat": 37.75587,
      "lng": 128.89615
    },
    "weather": {
      "timeStamp": "September 28th 2018, 12:28:53 am",
      "timeKorea": "September 28th 2018, 7:28:53 am",
      "tempratureC": "12.5",
      "cloudsPercent": 80,
      "humidityPercent": "76",
      "windSpeedMS": "3.5",
      "windDir": "WSW",
      "pressureHPA": "1020.2",
      "visibilityKM": "23.36",
      "description": "Most Cloudy"
    }
  },
  {
    "location": {
      "name": "Donghae",
      "lat": 37.56829,
      "lng": 126.99778
    },
    "weather": {
      "timeStamp": "September 28th 2018, 12:28:55 am",
      "timeKorea": "September 28th 2018, 7:28:55 am",
      "tempratureC": "12.8",
      "cloudsPercent": 80,
      "humidityPercent": "90",
      "windSpeedMS": "1.7",
      "windDir": "SSW",
      "pressureHPA": "1020.1",
      "visibilityKM": "20",
      "description": "Most Cloudy"
    }
  },
  {
    "location": {
      "name": "Seoul",
      "lat": 37.56896,
      "lng": 126.98304
    },
    "weather": {
      "timeStamp": "September 28th 2018, 12:28:57 am",
      "timeKorea": "September 28th 2018, 7:28:57 am",
      "tempratureC": "14.5",
      "cloudsPercent": 80,
      "humidityPercent": "62",
      "windSpeedMS": "1.5",
      "windDir": "ENE",
      "pressureHPA": "1019.2",
      "visibilityKM": "20",
      "description": "Most Cloudy"
    }
  },
  {
    "location": {
      "name": "Incheon",
      "lat": 37.47809,
      "lng": 126.64029
    },
    "weather": {
      "timeStamp": "September 28th 2018, 12:28:59 am",
      "timeKorea": "September 28th 2018, 7:28:59 am",
      "tempratureC": "15.7",
      "cloudsPercent": 80,
      "humidityPercent": "61",
      "windSpeedMS": "1.9",
      "windDir": "E",
      "pressureHPA": "1018.8",
      "visibilityKM": "20",
      "description": "Most Cloudy"
    }
  },
  {
    "location": {
      "name": "Wonju",
      "lat": 37.56829,
      "lng": 126.99778
    },
    "weather": {
      "timeStamp": "September 28th 2018, 12:29:01 am",
      "timeKorea": "September 28th 2018, 7:29:01 am",
      "tempratureC": "10.6",
      "cloudsPercent": 80,
      "humidityPercent": "79",
      "windSpeedMS": "0.1",
      "windDir": "-",
      "pressureHPA": "1020.4",
      "visibilityKM": "20",
      "description": "Most Cloudy"
    }
  },
  {
    "location": {
      "name": "Ulleungdo",
      "lat": 37.56829,
      "lng": 126.99778
    },
    "weather": {
      "timeStamp": "September 28th 2018, 12:29:03 am",
      "timeKorea": "September 28th 2018, 7:29:03 am",
      "tempratureC": "16.0",
      "cloudsPercent": 40,
      "humidityPercent": "59",
      "windSpeedMS": "5.5",
      "windDir": "NE",
      "pressureHPA": "1020.3",
      "visibilityKM": "20",
      "description": "Partly Cloudy"
    }
  },
  {
    "location": {
      "name": "Suwon",
      "lat": 37.56829,
      "lng": 126.99778
    },
    "weather": {
      "timeStamp": "September 28th 2018, 12:29:05 am",
      "timeKorea": "September 28th 2018, 7:29:05 am",
      "tempratureC": "14.7",
      "cloudsPercent": 70,
      "humidityPercent": "67",
      "windSpeedMS": "1.6",
      "windDir": "ENE",
      "pressureHPA": "1019.5",
      "visibilityKM": "20",
      "description": "Most Cloudy"
    }
  },
  {
    "location": {
      "name": "Yeongwol",
      "lat": 37.56829,
      "lng": 126.99778
    },
    "weather": {
      "timeStamp": "September 28th 2018, 12:29:07 am",
      "timeKorea": "September 28th 2018, 7:29:07 am",
      "tempratureC": "9.1",
      "cloudsPercent": 70,
      "humidityPercent": "98",
      "windSpeedMS": "0.1",
      "windDir": "-",
      "pressureHPA": "1021.4",
      "visibilityKM": "2.53",
      "description": "Most Cloudy"
    }
  },
  {
    "location": {
      "name": "Chungju",
      "lat": 36.97604,
      "lng": 127.94024
    },
    "weather": {
      "timeStamp": "September 28th 2018, 12:29:09 am",
      "timeKorea": "September 28th 2018, 7:29:09 am",
      "tempratureC": "11.0",
      "cloudsPercent": 60,
      "humidityPercent": "90",
      "windSpeedMS": "1.2",
      "windDir": "WSW",
      "pressureHPA": "1020.5",
      "visibilityKM": "19.99",
      "description": "Most Cloudy"
    }
  },
  {
    "location": {
      "name": "Seosan",
      "lat": 37.56829,
      "lng": 126.99778
    },
    "weather": {
      "timeStamp": "September 28th 2018, 12:29:11 am",
      "timeKorea": "September 28th 2018, 7:29:11 am",
      "tempratureC": "14.4",
      "cloudsPercent": 90,
      "humidityPercent": "75",
      "windSpeedMS": "0.9",
      "windDir": "N",
      "pressureHPA": "1019.0",
      "visibilityKM": "18.6",
      "description": "Cloudy"
    }
  },
  {
    "location": {
      "name": "Uljin",
      "lat": 37.56829,
      "lng": 126.99778
    },
    "weather": {
      "timeStamp": "September 28th 2018, 12:29:13 am",
      "timeKorea": "September 28th 2018, 7:29:13 am",
      "tempratureC": "12.6",
      "cloudsPercent": 100,
      "humidityPercent": "89",
      "windSpeedMS": "1.8",
      "windDir": "W",
      "pressureHPA": "1020.3",
      "visibilityKM": "20",
      "description": "Cloudy"
    }
  },
  {
    "location": {
      "name": "Cheongju",
      "lat": 36.6439,
      "lng": 127.5012
    },
    "weather": {
      "timeStamp": "September 28th 2018, 12:29:15 am",
      "timeKorea": "September 28th 2018, 7:29:15 am",
      "tempratureC": "13.6",
      "cloudsPercent": 70,
      "humidityPercent": "73",
      "windSpeedMS": "1.6",
      "windDir": "N",
      "pressureHPA": "1019.2",
      "visibilityKM": "20",
      "description": "Most Cloudy"
    }
  },
  {
    "location": {
      "name": "Daejeon",
      "lat": 36.3301,
      "lng": 127.42247
    },
    "weather": {
      "timeStamp": "September 28th 2018, 12:29:17 am",
      "timeKorea": "September 28th 2018, 7:29:17 am",
      "tempratureC": "13.1",
      "cloudsPercent": 80,
      "humidityPercent": "87",
      "windSpeedMS": "1.2",
      "windDir": "NW",
      "pressureHPA": "1019.7",
      "visibilityKM": "20",
      "description": "Most Cloudy"
    }
  },
  {
    "location": {
      "name": "Chupungnyeong",
      "lat": 37.56829,
      "lng": 126.99778
    },
    "weather": {
      "timeStamp": "September 28th 2018, 12:29:19 am",
      "timeKorea": "September 28th 2018, 7:29:19 am",
      "tempratureC": "8.9",
      "cloudsPercent": 60,
      "humidityPercent": "94",
      "windSpeedMS": "0.6",
      "windDir": "ENE",
      "pressureHPA": "1020.6",
      "visibilityKM": "19.96",
      "description": "Most Cloudy"
    }
  },
  {
    "location": {
      "name": "Andong",
      "lat": 36.56592,
      "lng": 128.725
    },
    "weather": {
      "timeStamp": "September 28th 2018, 12:29:21 am",
      "timeKorea": "September 28th 2018, 7:29:21 am",
      "tempratureC": "9.9",
      "cloudsPercent": 90,
      "humidityPercent": "100",
      "windSpeedMS": "1.1",
      "windDir": "WNW",
      "pressureHPA": "1020.7",
      "visibilityKM": "55",
      "description": "preceding fog"
    }
  },
  {
    "location": {
      "name": "Sangju",
      "lat": 36.41558,
      "lng": 128.15862
    },
    "weather": {
      "timeStamp": "September 28th 2018, 12:29:23 am",
      "timeKorea": "September 28th 2018, 7:29:23 am",
      "tempratureC": "10.0",
      "cloudsPercent": 60,
      "humidityPercent": "97",
      "windSpeedMS": "0.4",
      "windDir": "-",
      "pressureHPA": "1020.6",
      "visibilityKM": "33.96",
      "description": "Most Cloudy"
    }
  },
  {
    "location": {
      "name": "Pohang",
      "lat": 36.03074,
      "lng": 129.37343
    },
    "weather": {
      "timeStamp": "September 28th 2018, 12:29:25 am",
      "timeKorea": "September 28th 2018, 7:29:25 am",
      "tempratureC": "15.6",
      "cloudsPercent": 90,
      "humidityPercent": "78",
      "windSpeedMS": "1.8",
      "windDir": "SW",
      "pressureHPA": "1019.3",
      "visibilityKM": "20",
      "description": "rain"
    }
  },
  {
    "location": {
      "name": "Gunsan",
      "lat": 35.98177,
      "lng": 126.71602
    },
    "weather": {
      "timeStamp": "September 28th 2018, 12:29:27 am",
      "timeKorea": "September 28th 2018, 7:29:27 am",
      "tempratureC": "15.6",
      "cloudsPercent": 80,
      "humidityPercent": "75",
      "windSpeedMS": "0.7",
      "windDir": "ENE",
      "pressureHPA": "1018.6",
      "visibilityKM": "20",
      "description": "Most Cloudy"
    }
  },
  {
    "location": {
      "name": "Daegu",
      "lat": 35.86873,
      "lng": 128.60502
    },
    "weather": {
      "timeStamp": "September 28th 2018, 12:29:29 am",
      "timeKorea": "September 28th 2018, 7:29:29 am",
      "tempratureC": "12.5",
      "cloudsPercent": 60,
      "humidityPercent": "87",
      "windSpeedMS": "0.4",
      "windDir": "-",
      "pressureHPA": "1020.0",
      "visibilityKM": "20",
      "description": "Most Cloudy"
    }
  },
  {
    "location": {
      "name": "Jeonju",
      "lat": 35.83142,
      "lng": 127.14039
    },
    "weather": {
      "timeStamp": "September 28th 2018, 12:29:31 am",
      "timeKorea": "September 28th 2018, 7:29:31 am",
      "tempratureC": "15.2",
      "cloudsPercent": 70,
      "humidityPercent": "83",
      "windSpeedMS": "1.6",
      "windDir": "SE",
      "pressureHPA": "1018.6",
      "visibilityKM": "20",
      "description": "Most Cloudy"
    }
  },
  {
    "location": {
      "name": "Ulsan",
      "lat": 35.54868,
      "lng": 129.31501
    },
    "weather": {
      "timeStamp": "September 28th 2018, 12:29:33 am",
      "timeKorea": "September 28th 2018, 7:29:33 am",
      "tempratureC": "16.3",
      "cloudsPercent": 80,
      "humidityPercent": "85",
      "windSpeedMS": "2.7",
      "windDir": "NNW",
      "pressureHPA": "1018.6",
      "visibilityKM": "20",
      "description": "rain"
    }
  },
  {
    "location": {
      "name": "Changwon",
      "lat": 37.56829,
      "lng": 126.99778
    },
    "weather": {
      "timeStamp": "September 28th 2018, 12:29:35 am",
      "timeKorea": "September 28th 2018, 7:29:35 am",
      "tempratureC": "14.7",
      "cloudsPercent": 10,
      "humidityPercent": "85",
      "windSpeedMS": "0.4",
      "windDir": "-",
      "pressureHPA": "1018.8",
      "visibilityKM": "20",
      "description": "Sunny"
    }
  },
  {
    "location": {
      "name": "Gwangju",
      "lat": 35.16244,
      "lng": 126.91034
    },
    "weather": {
      "timeStamp": "September 28th 2018, 12:29:37 am",
      "timeKorea": "September 28th 2018, 7:29:37 am",
      "tempratureC": "15.8",
      "cloudsPercent": 90,
      "humidityPercent": "81",
      "windSpeedMS": "1.9",
      "windDir": "NE",
      "pressureHPA": "1018.7",
      "visibilityKM": "20",
      "description": "Cloudy"
    }
  },
  {
    "location": {
      "name": "Busan",
      "lat": 35.097,
      "lng": 129.0081
    },
    "weather": {
      "timeStamp": "September 28th 2018, 12:29:39 am",
      "timeKorea": "September 28th 2018, 7:29:39 am",
      "tempratureC": "17.8",
      "cloudsPercent": 10,
      "humidityPercent": "71",
      "windSpeedMS": "2.4",
      "windDir": "NE",
      "pressureHPA": "1017.7",
      "visibilityKM": "20",
      "description": "Sunny"
    }
  },
  {
    "location": {
      "name": "Tongyeong",
      "lat": 37.56829,
      "lng": 126.99778
    },
    "weather": {
      "timeStamp": "September 28th 2018, 12:29:41 am",
      "timeKorea": "September 28th 2018, 7:29:41 am",
      "tempratureC": "16.5",
      "cloudsPercent": 40,
      "humidityPercent": "76",
      "windSpeedMS": "2.7",
      "windDir": "N",
      "pressureHPA": "1018.4",
      "visibilityKM": "20",
      "description": "Partly Cloudy"
    }
  },
  {
    "location": {
      "name": "Mokpo",
      "lat": 37.56829,
      "lng": 126.99778
    },
    "weather": {
      "timeStamp": "September 28th 2018, 12:29:43 am",
      "timeKorea": "September 28th 2018, 7:29:43 am",
      "tempratureC": "16.8",
      "cloudsPercent": 70,
      "humidityPercent": "76",
      "windSpeedMS": "0.3",
      "windDir": "-",
      "pressureHPA": "1018.3",
      "visibilityKM": "20",
      "description": "Most Cloudy"
    }
  },
  {
    "location": {
      "name": "Yeosu",
      "lat": 34.73824,
      "lng": 127.74147
    },
    "weather": {
      "timeStamp": "September 28th 2018, 12:29:45 am",
      "timeKorea": "September 28th 2018, 7:29:45 am",
      "tempratureC": "17.8",
      "cloudsPercent": 50,
      "humidityPercent": "68",
      "windSpeedMS": "5.3",
      "windDir": "ENE",
      "pressureHPA": "1018.0",
      "visibilityKM": "20",
      "description": "Partly Cloudy"
    }
  },
  {
    "location": {
      "name": "Heuksando",
      "lat": 37.56829,
      "lng": 126.99778
    },
    "weather": {
      "timeStamp": "September 28th 2018, 12:29:47 am",
      "timeKorea": "September 28th 2018, 7:29:47 am",
      "tempratureC": "18.5",
      "cloudsPercent": 80,
      "humidityPercent": "77",
      "windSpeedMS": "2.3",
      "windDir": "SE",
      "pressureHPA": "1017.4",
      "visibilityKM": "20",
      "description": "Most Cloudy"
    }
  },
  {
    "location": {
      "name": "Wando",
      "lat": 37.56829,
      "lng": 126.99778
    },
    "weather": {
      "timeStamp": "September 28th 2018, 12:29:49 am",
      "timeKorea": "September 28th 2018, 7:29:49 am",
      "tempratureC": "16.2",
      "cloudsPercent": 80,
      "humidityPercent": "77",
      "windSpeedMS": "0.7",
      "windDir": "SSW",
      "pressureHPA": "1018.1",
      "visibilityKM": "20",
      "description": "Most Cloudy"
    }
  },
  {
    "location": {
      "name": "Gochang",
      "lat": 35.40844,
      "lng": 126.55761
    },
    "weather": {
      "timeStamp": "September 28th 2018, 12:29:51 am",
      "timeKorea": "September 28th 2018, 7:29:51 am",
      "tempratureC": "13.7",
      "cloudsPercent": 90,
      "humidityPercent": "91",
      "windSpeedMS": "1.3",
      "windDir": "SE",
      "pressureHPA": "1018.6",
      "visibilityKM": "19.53",
      "description": "Cloudy"
    }
  },
  {
    "location": {
      "name": "Suncheon",
      "lat": 34.94793,
      "lng": 127.48604
    },
    "weather": {
      "timeStamp": "September 28th 2018, 12:29:53 am",
      "timeKorea": "September 28th 2018, 7:29:53 am",
      "tempratureC": "10.0",
      "cloudsPercent": 70,
      "humidityPercent": "100",
      "windSpeedMS": "0.3",
      "windDir": "-",
      "pressureHPA": "1019.4",
      "visibilityKM": "6.54",
      "description": "Most Cloudy"
    }
  },
  {
    "location": {
      "name": "Hongseong",
      "lat": 36.59394,
      "lng": 126.66864
    },
    "weather": {
      "timeStamp": "September 28th 2018, 12:29:55 am",
      "timeKorea": "September 28th 2018, 7:29:55 am",
      "tempratureC": "11.9",
      "cloudsPercent": 80,
      "humidityPercent": "98",
      "windSpeedMS": "0.5",
      "windDir": "NNE",
      "pressureHPA": "1018.6",
      "visibilityKM": "20",
      "description": "Most Cloudy"
    }
  },
  {
    "location": {
      "name": "Jeju",
      "lat": 33.51014,
      "lng": 126.52193
    },
    "weather": {
      "timeStamp": "September 28th 2018, 12:29:57 am",
      "timeKorea": "September 28th 2018, 7:29:57 am",
      "tempratureC": "20.7",
      "cloudsPercent": 70,
      "humidityPercent": "74",
      "windSpeedMS": "4.1",
      "windDir": "ENE",
      "pressureHPA": "1017.1",
      "visibilityKM": "20",
      "description": "Most Cloudy"
    }
  },
  {
    "location": {
      "name": "Gosan",
      "lat": 33.30006,
      "lng": 126.18814
    },
    "weather": {
      "timeStamp": "September 28th 2018, 12:29:59 am",
      "timeKorea": "September 28th 2018, 7:29:59 am",
      "tempratureC": "19.6",
      "cloudsPercent": 60,
      "humidityPercent": "83",
      "windSpeedMS": "4.7",
      "windDir": "ENE",
      "pressureHPA": "1015.8",
      "visibilityKM": "20",
      "description": "Most Cloudy"
    }
  },
  {
    "location": {
      "name": "Seongsan",
      "lat": 37.56829,
      "lng": 126.99778
    },
    "weather": {
      "timeStamp": "September 28th 2018, 12:30:01 am",
      "timeKorea": "September 28th 2018, 7:30:01 am",
      "tempratureC": "20.2",
      "cloudsPercent": 50,
      "humidityPercent": "74",
      "windSpeedMS": "4.6",
      "windDir": "NE",
      "pressureHPA": "1016.5",
      "visibilityKM": "20",
      "description": "Partly Cloudy"
    }
  },
  {
    "location": {
      "name": "Seogwipo",
      "lat": 33.26131,
      "lng": 126.61884
    },
    "weather": {
      "timeStamp": "September 28th 2018, 12:30:03 am",
      "timeKorea": "September 28th 2018, 7:30:03 am",
      "tempratureC": "20.1",
      "cloudsPercent": 50,
      "humidityPercent": "83",
      "windSpeedMS": "3.3",
      "windDir": "NNE",
      "pressureHPA": "1015.4",
      "visibilityKM": "20",
      "description": "Partly Cloudy"
    }
  },
  {
    "location": {
      "name": "Jinju",
      "lat": 35.19219,
      "lng": 128.083
    },
    "weather": {
      "timeStamp": "September 28th 2018, 12:30:05 am",
      "timeKorea": "September 28th 2018, 7:30:05 am",
      "tempratureC": "12.7",
      "cloudsPercent": 70,
      "humidityPercent": "84",
      "windSpeedMS": "0.2",
      "windDir": "-",
      "pressureHPA": "1019.4",
      "visibilityKM": "20",
      "description": "Most Cloudy"
    }
  },
  {
    "location": {
      "name": "Ganghwa",
      "lat": 37.56829,
      "lng": 126.99778
    },
    "weather": {
      "timeStamp": "September 28th 2018, 12:30:07 am",
      "timeKorea": "September 28th 2018, 7:30:07 am",
      "tempratureC": "12.3",
      "cloudsPercent": 100,
      "humidityPercent": "84",
      "windSpeedMS": "1.0",
      "windDir": "ENE",
      "pressureHPA": "1019.6",
      "visibilityKM": "9.61",
      "description": "Cloudy"
    }
  },
  {
    "location": {
      "name": "Yangpyeong",
      "lat": 37.56829,
      "lng": 126.99778
    },
    "weather": {
      "timeStamp": "September 28th 2018, 12:30:09 am",
      "timeKorea": "September 28th 2018, 7:30:09 am",
      "tempratureC": "10.9",
      "cloudsPercent": 100,
      "humidityPercent": "86",
      "windSpeedMS": "0.1",
      "windDir": "-",
      "pressureHPA": "1020.3",
      "visibilityKM": "20",
      "description": "Cloudy"
    }
  },
  {
    "location": {
      "name": "Icheon",
      "lat": 37.56829,
      "lng": 126.99778
    },
    "weather": {
      "timeStamp": "September 28th 2018, 12:30:11 am",
      "timeKorea": "September 28th 2018, 7:30:11 am",
      "tempratureC": "9.8",
      "cloudsPercent": 80,
      "humidityPercent": "91",
      "windSpeedMS": "0.3",
      "windDir": "-",
      "pressureHPA": "1020.6",
      "visibilityKM": "13.51",
      "description": "Most Cloudy"
    }
  },
  {
    "location": {
      "name": "Inje",
      "lat": 38.06525,
      "lng": 128.17412
    },
    "weather": {
      "timeStamp": "September 28th 2018, 12:30:13 am",
      "timeKorea": "September 28th 2018, 7:30:13 am",
      "tempratureC": "8.3",
      "cloudsPercent": 80,
      "humidityPercent": "92",
      "windSpeedMS": "1.4",
      "windDir": "N",
      "pressureHPA": "1022.2",
      "visibilityKM": "16.36",
      "description": "Most Cloudy"
    }
  },
  {
    "location": {
      "name": "Hongcheon",
      "lat": 37.6878,
      "lng": 127.88853
    },
    "weather": {
      "timeStamp": "September 28th 2018, 12:30:15 am",
      "timeKorea": "September 28th 2018, 7:30:15 am",
      "tempratureC": "8.6",
      "cloudsPercent": 80,
      "humidityPercent": "92",
      "windSpeedMS": "0.4",
      "windDir": "-",
      "pressureHPA": "1021.4",
      "visibilityKM": "41.53",
      "description": "Most Cloudy"
    }
  },
  {
    "location": {
      "name": "Taebaek",
      "lat": 37.56829,
      "lng": 126.99778
    },
    "weather": {
      "timeStamp": "September 28th 2018, 12:30:17 am",
      "timeKorea": "September 28th 2018, 7:30:17 am",
      "tempratureC": "5.8",
      "cloudsPercent": 70,
      "humidityPercent": "99",
      "windSpeedMS": "0.4",
      "windDir": "-",
      "pressureHPA": "1022.5",
      "visibilityKM": "194",
      "description": "Most Cloudy"
    }
  },
  {
    "location": {
      "name": "Jeongseon Gun",
      "lat": 37.37161,
      "lng": 128.65994
    },
    "weather": {
      "timeStamp": "September 28th 2018, 12:30:19 am",
      "timeKorea": "September 28th 2018, 7:30:19 am",
      "tempratureC": "9.3",
      "cloudsPercent": 80,
      "humidityPercent": "100",
      "windSpeedMS": "1.6",
      "windDir": "SE",
      "pressureHPA": "1022.7",
      "visibilityKM": "19.22",
      "description": "Most Cloudy"
    }
  },
  {
    "location": {
      "name": "Jecheon",
      "lat": 37.13887,
      "lng": 128.22134
    },
    "weather": {
      "timeStamp": "September 28th 2018, 12:30:21 am",
      "timeKorea": "September 28th 2018, 7:30:21 am",
      "tempratureC": "7.9",
      "cloudsPercent": 80,
      "humidityPercent": "92",
      "windSpeedMS": "0.3",
      "windDir": "-",
      "pressureHPA": "1020.9",
      "visibilityKM": "9.61",
      "description": "Most Cloudy"
    }
  },
  {
    "location": {
      "name": "Boeun",
      "lat": 37.56829,
      "lng": 126.99778
    },
    "weather": {
      "timeStamp": "September 28th 2018, 12:30:23 am",
      "timeKorea": "September 28th 2018, 7:30:23 am",
      "tempratureC": "8.8",
      "cloudsPercent": 60,
      "humidityPercent": "96",
      "windSpeedMS": "0.0",
      "windDir": "-",
      "pressureHPA": "1020.5",
      "visibilityKM": "11.81",
      "description": "Most Cloudy"
    }
  },
  {
    "location": {
      "name": "Cheonan",
      "lat": 36.80931,
      "lng": 127.16004
    },
    "weather": {
      "timeStamp": "September 28th 2018, 12:30:25 am",
      "timeKorea": "September 28th 2018, 7:30:25 am",
      "tempratureC": "10.6",
      "cloudsPercent": 70,
      "humidityPercent": "86",
      "windSpeedMS": "1.0",
      "windDir": "ENE",
      "pressureHPA": "1019.7",
      "visibilityKM": "5.2",
      "description": "Most Cloudy"
    }
  },
  {
    "location": {
      "name": "Boryeong",
      "lat": 37.56829,
      "lng": 126.99778
    },
    "weather": {
      "timeStamp": "September 28th 2018, 12:30:27 am",
      "timeKorea": "September 28th 2018, 7:30:27 am",
      "tempratureC": "16.4",
      "cloudsPercent": 100,
      "humidityPercent": "62",
      "windSpeedMS": "1.5",
      "windDir": "NE",
      "pressureHPA": "1018.0",
      "visibilityKM": "19.59",
      "description": "Cloudy"
    }
  },
  {
    "location": {
      "name": "Buyeo",
      "lat": 36.27995,
      "lng": 126.90936
    },
    "weather": {
      "timeStamp": "September 28th 2018, 12:30:29 am",
      "timeKorea": "September 28th 2018, 7:30:29 am",
      "tempratureC": "13.1",
      "cloudsPercent": 70,
      "humidityPercent": "86",
      "windSpeedMS": "0.7",
      "windDir": "WSW",
      "pressureHPA": "1019.0",
      "visibilityKM": "20",
      "description": "Most Cloudy"
    }
  },
  {
    "location": {
      "name": "Geumsan",
      "lat": 36.0955,
      "lng": 127.48392
    },
    "weather": {
      "timeStamp": "September 28th 2018, 12:30:31 am",
      "timeKorea": "September 28th 2018, 7:30:31 am",
      "tempratureC": "8.9",
      "cloudsPercent": 80,
      "humidityPercent": "94",
      "windSpeedMS": "1.1",
      "windDir": "WNW",
      "pressureHPA": "1020.0",
      "visibilityKM": "15.47",
      "description": "Most Cloudy"
    }
  },
  {
    "location": {
      "name": "Buan",
      "lat": 35.71914,
      "lng": 126.72928
    },
    "weather": {
      "timeStamp": "September 28th 2018, 12:30:33 am",
      "timeKorea": "September 28th 2018, 7:30:33 am",
      "tempratureC": "14.0",
      "cloudsPercent": 90,
      "humidityPercent": "87",
      "windSpeedMS": "0.0",
      "windDir": "-",
      "pressureHPA": "1018.6",
      "visibilityKM": "12.86",
      "description": "Cloudy"
    }
  },
  {
    "location": {
      "name": "Imsil",
      "lat": 37.56829,
      "lng": 126.99778
    },
    "weather": {
      "timeStamp": "September 28th 2018, 12:30:35 am",
      "timeKorea": "September 28th 2018, 7:30:35 am",
      "tempratureC": "10.1",
      "cloudsPercent": 70,
      "humidityPercent": "96",
      "windSpeedMS": "0.2",
      "windDir": "-",
      "pressureHPA": "1019.7",
      "visibilityKM": "12.23",
      "description": "Most Cloudy"
    }
  },
  {
    "location": {
      "name": "Jeongeup",
      "lat": 37.56829,
      "lng": 126.99778
    },
    "weather": {
      "timeStamp": "September 28th 2018, 12:30:37 am",
      "timeKorea": "September 28th 2018, 7:30:37 am",
      "tempratureC": "14.0",
      "cloudsPercent": 90,
      "humidityPercent": "99",
      "windSpeedMS": "0.9",
      "windDir": "ENE",
      "pressureHPA": "1018.4",
      "visibilityKM": "20",
      "description": "Cloudy"
    }
  },
  {
    "location": {
      "name": "Namwon",
      "lat": 37.56829,
      "lng": 126.99778
    },
    "weather": {
      "timeStamp": "September 28th 2018, 12:30:39 am",
      "timeKorea": "September 28th 2018, 7:30:39 am",
      "tempratureC": "12.3",
      "cloudsPercent": 90,
      "humidityPercent": "85",
      "windSpeedMS": "1.4",
      "windDir": "SSW",
      "pressureHPA": "1019.3",
      "visibilityKM": "20",
      "description": "Cloudy"
    }
  },
  {
    "location": {
      "name": "Jangsu",
      "lat": 35.64244,
      "lng": 127.521
    },
    "weather": {
      "timeStamp": "September 28th 2018, 12:30:41 am",
      "timeKorea": "September 28th 2018, 7:30:41 am",
      "tempratureC": "8.2",
      "cloudsPercent": 80,
      "humidityPercent": "93",
      "windSpeedMS": "0.7",
      "windDir": "SW",
      "pressureHPA": "1020.5",
      "visibilityKM": "15.76",
      "description": "Most Cloudy"
    }
  },
  {
    "location": {
      "name": "Gochanggun",
      "lat": 37.56829,
      "lng": 126.99778
    },
    "weather": {
      "timeStamp": "September 28th 2018, 12:30:43 am",
      "timeKorea": "September 28th 2018, 7:30:43 am",
      "tempratureC": "13.9",
      "cloudsPercent": 100,
      "humidityPercent": "86",
      "windSpeedMS": "0.4",
      "windDir": "-",
      "pressureHPA": "1018.0",
      "visibilityKM": "50",
      "description": "Cloudy"
    }
  },
  {
    "location": {
      "name": "Bukchangwon",
      "lat": 37.56829,
      "lng": 126.99778
    },
    "weather": {
      "timeStamp": "September 28th 2018, 12:30:45 am",
      "timeKorea": "September 28th 2018, 7:30:45 am",
      "tempratureC": "14.1",
      "cloudsPercent": 30,
      "humidityPercent": "85",
      "windSpeedMS": "0.7",
      "windDir": "W",
      "pressureHPA": "1018.9",
      "visibilityKM": "38.47",
      "description": "Partly Cloudy"
    }
  },
  {
    "location": {
      "name": "Gangjin Gun",
      "lat": 34.62455,
      "lng": 126.76534
    },
    "weather": {
      "timeStamp": "September 28th 2018, 12:30:47 am",
      "timeKorea": "September 28th 2018, 7:30:47 am",
      "tempratureC": "13.3",
      "cloudsPercent": 90,
      "humidityPercent": "94",
      "windSpeedMS": "0.9",
      "windDir": "N",
      "pressureHPA": "1018.8",
      "visibilityKM": "17.72",
      "description": "Cloudy"
    }
  },
  {
    "location": {
      "name": "Jangheung",
      "lat": 34.66656,
      "lng": 126.88455
    },
    "weather": {
      "timeStamp": "September 28th 2018, 12:30:49 am",
      "timeKorea": "September 28th 2018, 7:30:49 am",
      "tempratureC": "12.7",
      "cloudsPercent": 90,
      "humidityPercent": "96",
      "windSpeedMS": "0.5",
      "windDir": "SW",
      "pressureHPA": "1018.1",
      "visibilityKM": "13.12",
      "description": "Cloudy"
    }
  },
  {
    "location": {
      "name": "Haenam",
      "lat": 34.56186,
      "lng": 126.59908
    },
    "weather": {
      "timeStamp": "September 28th 2018, 12:30:51 am",
      "timeKorea": "September 28th 2018, 7:30:51 am",
      "tempratureC": "12.6",
      "cloudsPercent": 90,
      "humidityPercent": "96",
      "windSpeedMS": "0.2",
      "windDir": "-",
      "pressureHPA": "1018.3",
      "visibilityKM": "18.63",
      "description": "Cloudy"
    }
  },
  {
    "location": {
      "name": "Goheung",
      "lat": 37.56829,
      "lng": 126.99778
    },
    "weather": {
      "timeStamp": "September 28th 2018, 12:30:53 am",
      "timeKorea": "September 28th 2018, 7:30:53 am",
      "tempratureC": "15.7",
      "cloudsPercent": 80,
      "humidityPercent": "72",
      "windSpeedMS": "0.7",
      "windDir": "NNE",
      "pressureHPA": "1018.0",
      "visibilityKM": "20",
      "description": "Most Cloudy"
    }
  },
  {
    "location": {
      "name": "Jindogun",
      "lat": 37.56829,
      "lng": 126.99778
    },
    "weather": {
      "timeStamp": "September 28th 2018, 12:30:55 am",
      "timeKorea": "September 28th 2018, 7:30:55 am",
      "tempratureC": "14.2",
      "cloudsPercent": 70,
      "humidityPercent": "93",
      "windSpeedMS": "0.6",
      "windDir": "SSW",
      "pressureHPA": "1017.2",
      "visibilityKM": "19.9",
      "description": "Most Cloudy"
    }
  },
  {
    "location": {
      "name": "Bongwhoa",
      "lat": 37.56829,
      "lng": 126.99778
    },
    "weather": {
      "timeStamp": "September 28th 2018, 12:30:57 am",
      "timeKorea": "September 28th 2018, 7:30:57 am",
      "tempratureC": "5.7",
      "cloudsPercent": 70,
      "humidityPercent": "98",
      "windSpeedMS": "0.3",
      "windDir": "-",
      "pressureHPA": "1021.7",
      "visibilityKM": "18.51",
      "description": "Most Cloudy"
    }
  },
  {
    "location": {
      "name": "Yeongju",
      "lat": 36.82297,
      "lng": 128.63303
    },
    "weather": {
      "timeStamp": "September 28th 2018, 12:30:59 am",
      "timeKorea": "September 28th 2018, 7:30:59 am",
      "tempratureC": "7.9",
      "cloudsPercent": 50,
      "humidityPercent": "92",
      "windSpeedMS": "0.8",
      "windDir": "NW",
      "pressureHPA": "1021.0",
      "visibilityKM": "19.98",
      "description": "Partly Cloudy"
    }
  },
  {
    "location": {
      "name": "Mungyeong",
      "lat": 36.73722,
      "lng": 128.11034
    },
    "weather": {
      "timeStamp": "September 28th 2018, 12:31:01 am",
      "timeKorea": "September 28th 2018, 7:31:01 am",
      "tempratureC": "10.2",
      "cloudsPercent": 60,
      "humidityPercent": "91",
      "windSpeedMS": "0.2",
      "windDir": "-",
      "pressureHPA": "1020.6",
      "visibilityKM": "20",
      "description": "Most Cloudy"
    }
  },
  {
    "location": {
      "name": "Yeongdeok",
      "lat": 37.56829,
      "lng": 126.99778
    },
    "weather": {
      "timeStamp": "September 28th 2018, 12:31:03 am",
      "timeKorea": "September 28th 2018, 7:31:03 am",
      "tempratureC": "12.6",
      "cloudsPercent": 70,
      "humidityPercent": "89",
      "windSpeedMS": "1.2",
      "windDir": "S",
      "pressureHPA": "1019.8",
      "visibilityKM": "20",
      "description": "Most Cloudy"
    }
  },
  {
    "location": {
      "name": "Uiseong",
      "lat": 37.56829,
      "lng": 126.99778
    },
    "weather": {
      "timeStamp": "September 28th 2018, 12:31:05 am",
      "timeKorea": "September 28th 2018, 7:31:05 am",
      "tempratureC": "8.3",
      "cloudsPercent": 60,
      "humidityPercent": "90",
      "windSpeedMS": "0.3",
      "windDir": "-",
      "pressureHPA": "1020.8",
      "visibilityKM": "19.94",
      "description": "Most Cloudy"
    }
  },
  {
    "location": {
      "name": "Gumi",
      "lat": 36.12372,
      "lng": 128.37613
    },
    "weather": {
      "timeStamp": "September 28th 2018, 12:31:07 am",
      "timeKorea": "September 28th 2018, 7:31:07 am",
      "tempratureC": "11.4",
      "cloudsPercent": 40,
      "humidityPercent": "99",
      "windSpeedMS": "0.1",
      "windDir": "-",
      "pressureHPA": "1020.4",
      "visibilityKM": "20",
      "description": "Partly Cloudy"
    }
  },
  {
    "location": {
      "name": "Yeongcheon",
      "lat": 35.95806,
      "lng": 128.93571
    },
    "weather": {
      "timeStamp": "September 28th 2018, 12:31:09 am",
      "timeKorea": "September 28th 2018, 7:31:09 am",
      "tempratureC": "9.5",
      "cloudsPercent": 40,
      "humidityPercent": "95",
      "windSpeedMS": "0.7",
      "windDir": "E",
      "pressureHPA": "1019.8",
      "visibilityKM": "8.46",
      "description": "Partly Cloudy"
    }
  },
  {
    "location": {
      "name": "GyeongJu",
      "lat": 35.84276,
      "lng": 129.21169
    },
    "weather": {
      "timeStamp": "September 28th 2018, 12:31:11 am",
      "timeKorea": "September 28th 2018, 7:31:11 am",
      "tempratureC": "12.2",
      "cloudsPercent": 50,
      "humidityPercent": "96",
      "windSpeedMS": "1.4",
      "windDir": "SSW",
      "pressureHPA": "1019.5",
      "visibilityKM": "13.74",
      "description": "Partly Cloudy"
    }
  },
  {
    "location": {
      "name": "Geochang",
      "lat": 35.68195,
      "lng": 127.901
    },
    "weather": {
      "timeStamp": "September 28th 2018, 12:31:13 am",
      "timeKorea": "September 28th 2018, 7:31:13 am",
      "tempratureC": "9.5",
      "cloudsPercent": 40,
      "humidityPercent": "99",
      "windSpeedMS": "0.0",
      "windDir": "-",
      "pressureHPA": "1019.4",
      "visibilityKM": "0.11",
      "description": "Partly Cloudy"
    }
  },
  {
    "location": {
      "name": "Hapcheon",
      "lat": 37.56829,
      "lng": 126.99778
    },
    "weather": {
      "timeStamp": "September 28th 2018, 12:31:15 am",
      "timeKorea": "September 28th 2018, 7:31:15 am",
      "tempratureC": "10.0",
      "cloudsPercent": 40,
      "humidityPercent": "100",
      "windSpeedMS": "0.2",
      "windDir": "-",
      "pressureHPA": "1020.1",
      "visibilityKM": "18.4",
      "description": "Partly Cloudy"
    }
  },
  {
    "location": {
      "name": "Miryang",
      "lat": 35.49003,
      "lng": 128.74384
    },
    "weather": {
      "timeStamp": "September 28th 2018, 12:31:17 am",
      "timeKorea": "September 28th 2018, 7:31:17 am",
      "tempratureC": "12.5",
      "cloudsPercent": 40,
      "humidityPercent": "99",
      "windSpeedMS": "0.5",
      "windDir": "S",
      "pressureHPA": "1018.9",
      "visibilityKM": "20",
      "description": "Partly Cloudy"
    }
  },
  {
    "location": {
      "name": "Sancheong",
      "lat": 35.40711,
      "lng": 127.87728
    },
    "weather": {
      "timeStamp": "September 28th 2018, 12:31:19 am",
      "timeKorea": "September 28th 2018, 7:31:19 am",
      "tempratureC": "10.1",
      "cloudsPercent": 40,
      "humidityPercent": "100",
      "windSpeedMS": "1.0",
      "windDir": "WNW",
      "pressureHPA": "1020.4",
      "visibilityKM": "7.3",
      "description": "Partly Cloudy"
    }
  },
  {
    "location": {
      "name": "Geoje",
      "lat": 37.56829,
      "lng": 126.99778
    },
    "weather": {
      "timeStamp": "September 28th 2018, 12:31:22 am",
      "timeKorea": "September 28th 2018, 7:31:22 am",
      "tempratureC": "15.5",
      "cloudsPercent": 30,
      "humidityPercent": "98",
      "windSpeedMS": "0.1",
      "windDir": "-",
      "pressureHPA": "1018.4",
      "visibilityKM": "20",
      "description": "Partly Cloudy"
    }
  },
  {
    "location": {
      "name": "Namhae",
      "lat": 34.82472,
      "lng": 127.90472
    },
    "weather": {
      "timeStamp": "September 28th 2018, 12:31:24 am",
      "timeKorea": "September 28th 2018, 7:31:24 am",
      "tempratureC": "15.4",
      "cloudsPercent": 50,
      "humidityPercent": "78",
      "windSpeedMS": "1.3",
      "windDir": "WSW",
      "pressureHPA": "1019.1",
      "visibilityKM": "20",
      "description": "Partly Cloudy"
    }
  }
]