[
  {
    "name": "New York",
    "lat": 40.7127837,
    "lng": -74.0059413,
    "alt": 10
  },
  {
    "name": "Los Angeles",
    "lat": 34.0522342,
    "lng": -118.2436849,
    "alt": 88
  },
  {
    "name": "Chicago",
    "lat": 41.8781136,
    "lng": -87.6297982,
    "alt": 181
  },
  {
    "name": "Houston",
    "lat": 29.7604267,
    "lng": -95.3698028,
    "alt": 14
  },
  {
    "name": "Philadelphia",
    "lat": 39.9525839,
    "lng": -75.1652215,
    "alt": 11
  },
  {
    "name": "Phoenix",
    "lat": 33.4483771,
    "lng": -112.0740373,
    "alt": 330
  },
  {
    "name": "San Antonio",
    "lat": 29.4241219,
    "lng": -98.49362819999999,
    "alt": 194
  },
  {
    "name": "San Diego",
    "lat": 32.715738,
    "lng": -117.1610838,
    "alt": 17
  },
  {
    "name": "Dallas",
    "lat": 32.7766642,
    "lng": -96.79698789999999,
    "alt": 136
  },
  {
    "name": "San Jose",
    "lat": 37.3382082,
    "lng": -121.8863286,
    "alt": 26
  },
  {
    "name": "Austin",
    "lat": 30.267153,
    "lng": -97.7430608,
    "alt": 149
  },
  {
    "name": "Indianapolis",
    "lat": 39.768403,
    "lng": -86.158068,
    "alt": 217
  },
  {
    "name": "Jacksonville",
    "lat": 30.3321838,
    "lng": -81.65565099999999,
    "alt": 3
  },
  {
    "name": "San Francisco",
    "lat": 37.7749295,
    "lng": -122.4194155,
    "alt": 15
  },
  {
    "name": "Columbus",
    "lat": 39.9611755,
    "lng": -82.99879419999999,
    "alt": 234
  },
  {
    "name": "Charlotte",
    "lat": 35.2270869,
    "lng": -80.8431267,
    "alt": 231
  },
  {
    "name": "Fort Worth",
    "lat": 32.7554883,
    "lng": -97.3307658,
    "alt": 187
  },
  {
    "name": "El Paso",
    "lat": 31.7775757,
    "lng": -106.4424559,
    "alt": 1135
  },
  {
    "name": "Memphis",
    "lat": 35.1495343,
    "lng": -90.0489801,
    "alt": 77
  },
  {
    "name": "Seattle",
    "lat": 47.6062095,
    "lng": -122.3320708,
    "alt": 53
  },
  {
    "name": "Denver",
    "lat": 39.7392358,
    "lng": -104.990251,
    "alt": 1596
  },
  {
    "name": "Washington",
    "lat": 38.9071923,
    "lng": -77.0368707,
    "alt": 21
  },
  {
    "name": "Boston",
    "lat": 42.3600825,
    "lng": -71.0588801,
    "alt": 9
  },
  {
    "name": "Nashville-Davidson",
    "lat": 36.1626638,
    "lng": -86.7816016,
    "alt": 152
  },
  {
    "name": "Baltimore",
    "lat": 39.2903848,
    "lng": -76.6121893,
    "alt": 9
  },
  {
    "name": "Oklahoma City",
    "lat": 35.4675602,
    "lng": -97.5164276,
    "alt": 364
  },
  {
    "name": "Louisville/Jefferson County",
    "lat": 38.2526647,
    "lng": -85.7584557,
    "alt": 140
  },
  {
    "name": "Portland",
    "lat": 45.5230622,
    "lng": -122.6764816,
    "alt": 11
  },
  {
    "name": "Las Vegas",
    "lat": 36.1699412,
    "lng": -115.1398296,
    "alt": 612
  },
  {
    "name": "Albuquerque",
    "lat": 35.0853336,
    "lng": -106.6055534,
    "alt": 1583
  },
  {
    "name": "Tucson",
    "lat": 32.2217429,
    "lng": -110.926479,
    "alt": 758
  },
  {
    "name": "Fresno",
    "lat": 36.7468422,
    "lng": -119.7725868,
    "alt": 92
  },
  {
    "name": "Sacramento",
    "lat": 38.5815719,
    "lng": -121.4943996,
    "alt": 8
  },
  {
    "name": "Long Beach",
    "lat": 33.7700504,
    "lng": -118.1937395,
    "alt": 9
  },
  {
    "name": "Kansas City",
    "lat": 39.0997265,
    "lng": -94.5785667,
    "alt": 274
  },
  {
    "name": "Mesa",
    "lat": 33.4151843,
    "lng": -111.8314724,
    "alt": 378
  },
  {
    "name": "Virginia Beach",
    "lat": 36.8529263,
    "lng": -75.97798499999999,
    "alt": 2
  },
  {
    "name": "Atlanta",
    "lat": 33.7489954,
    "lng": -84.3879824,
    "alt": 318
  },
  {
    "name": "Colorado Springs",
    "lat": 38.8338816,
    "lng": -104.8213634,
    "alt": 1831
  },
  {
    "name": "Omaha",
    "lat": 41.2523634,
    "lng": -95.99798829999999,
    "alt": 360
  },
  {
    "name": "Raleigh",
    "lat": 35.7795897,
    "lng": -78.6381787,
    "alt": 106
  },
  {
    "name": "Miami",
    "lat": 25.7616798,
    "lng": -80.1917902,
    "alt": 1
  },
  {
    "name": "Oakland",
    "lat": 37.8043637,
    "lng": -122.2711137,
    "alt": 12
  },
  {
    "name": "Minneapolis",
    "lat": 44.977753,
    "lng": -93.2650108,
    "alt": 254
  },
  {
    "name": "Tulsa",
    "lat": 36.1539816,
    "lng": -95.99277500000001,
    "alt": 218
  },
  {
    "name": "Cleveland",
    "lat": 41.49932,
    "lng": -81.6943605,
    "alt": 200
  },
  {
    "name": "Wichita",
    "lat": 37.688889,
    "lng": -97.336111,
    "alt": 396
  },
  {
    "name": "Arlington",
    "lat": 32.735687,
    "lng": -97.10806559999999,
    "alt": 183
  },
  {
    "name": "New Orleans",
    "lat": 29.95106579999999,
    "lng": -90.0715323,
    "alt": 1
  },
  {
    "name": "Bakersfield",
    "lat": 35.3732921,
    "lng": -119.0187125,
    "alt": 123
  },
  {
    "name": "Tampa",
    "lat": 27.950575,
    "lng": -82.4571776,
    "alt": 6
  },
  {
    "name": "Honolulu",
    "lat": 21.3069444,
    "lng": -157.8583333,
    "alt": 18
  },
  {
    "name": "Aurora",
    "lat": 39.7294319,
    "lng": -104.8319195,
    "alt": 1647
  },
  {
    "name": "Anaheim",
    "lat": 33.8352932,
    "lng": -117.9145036,
    "alt": 47
  },
  {
    "name": "Santa Ana",
    "lat": 33.7455731,
    "lng": -117.8678338,
    "alt": 35
  },
  {
    "name": "St. Louis",
    "lat": 38.6270025,
    "lng": -90.19940419999999,
    "alt": 141
  },
  {
    "name": "Riverside",
    "lat": 33.9533487,
    "lng": -117.3961564,
    "alt": 252
  },
  {
    "name": "Corpus Christi",
    "lat": 27.8005828,
    "lng": -97.39638099999999,
    "alt": 3
  },
  {
    "name": "Lexington-Fayette",
    "lat": 38.0405837,
    "lng": -84.5037164,
    "alt": 289
  },
  {
    "name": "Pittsburgh",
    "lat": 40.44062479999999,
    "lng": -79.9958864,
    "alt": 231
  },
  {
    "name": "Anchorage",
    "lat": 61.2180556,
    "lng": -149.9002778,
    "alt": 30
  },
  {
    "name": "Stockton",
    "lat": 37.9577016,
    "lng": -121.2907796,
    "alt": 4
  },
  {
    "name": "Cincinnati",
    "lat": 39.1031182,
    "lng": -84.5120196,
    "alt": 167
  },
  {
    "name": "St. Paul",
    "lat": 44.9537029,
    "lng": -93.0899578,
    "alt": 230
  },
  {
    "name": "Toledo",
    "lat": 41.6639383,
    "lng": -83.55521200000001,
    "alt": 186
  },
  {
    "name": "Greensboro",
    "lat": 36.0726354,
    "lng": -79.7919754,
    "alt": 251
  },
  {
    "name": "Newark",
    "lat": 40.735657,
    "lng": -74.1723667,
    "alt": 9
  },
  {
    "name": "Plano",
    "lat": 33.0198431,
    "lng": -96.6988856,
    "alt": 202
  },
  {
    "name": "Henderson",
    "lat": 36.0395247,
    "lng": -114.9817213,
    "alt": 570
  },
  {
    "name": "Lincoln",
    "lat": 40.8257625,
    "lng": -96.6851982,
    "alt": 353
  },
  {
    "name": "Buffalo",
    "lat": 42.88644679999999,
    "lng": -78.8783689,
    "alt": 182
  },
  {
    "name": "Jersey City",
    "lat": 40.72815749999999,
    "lng": -74.0776417,
    "alt": 9
  },
  {
    "name": "Chula Vista",
    "lat": 32.6400541,
    "lng": -117.0841955,
    "alt": 20
  },
  {
    "name": "Fort Wayne",
    "lat": 41.079273,
    "lng": -85.1393513,
    "alt": 233
  },
  {
    "name": "Orlando",
    "lat": 28.5383355,
    "lng": -81.3792365,
    "alt": 30
  },
  {
    "name": "St. Petersburg",
    "lat": 27.773056,
    "lng": -82.64,
    "alt": 10
  },
  {
    "name": "Chandler",
    "lat": 33.3061605,
    "lng": -111.8412502,
    "alt": 369
  },
  {
    "name": "Laredo",
    "lat": 27.5305671,
    "lng": -99.48032409999999,
    "alt": 141
  },
  {
    "name": "Norfolk",
    "lat": 36.8507689,
    "lng": -76.28587259999999,
    "alt": 2
  },
  {
    "name": "Durham",
    "lat": 35.9940329,
    "lng": -78.898619,
    "alt": 122
  },
  {
    "name": "Madison",
    "lat": 43.0730517,
    "lng": -89.4012302,
    "alt": 265
  },
  {
    "name": "Lubbock",
    "lat": 33.5778631,
    "lng": -101.8551665,
    "alt": 976
  },
  {
    "name": "Irvine",
    "lat": 33.6839473,
    "lng": -117.7946942,
    "alt": 27
  },
  {
    "name": "Winston-Salem",
    "lat": 36.09985959999999,
    "lng": -80.244216,
    "alt": 277
  },
  {
    "name": "Glendale",
    "lat": 33.5386523,
    "lng": -112.1859866,
    "alt": 351
  },
  {
    "name": "Garland",
    "lat": 32.912624,
    "lng": -96.63888329999999,
    "alt": 167
  },
  {
    "name": "Hialeah",
    "lat": 25.8575963,
    "lng": -80.2781057,
    "alt": 1
  },
  {
    "name": "Reno",
    "lat": 39.5296329,
    "lng": -119.8138027,
    "alt": 1373
  },
  {
    "name": "Chesapeake",
    "lat": 36.7682088,
    "lng": -76.2874927,
    "alt": 1
  },
  {
    "name": "Gilbert",
    "lat": 33.3528264,
    "lng": -111.789027,
    "alt": 376
  },
  {
    "name": "Baton Rouge",
    "lat": 30.4582829,
    "lng": -91.1403196,
    "alt": 14
  },
  {
    "name": "Irving",
    "lat": 32.8140177,
    "lng": -96.9488945,
    "alt": 147
  },
  {
    "name": "Scottsdale",
    "lat": 33.4941704,
    "lng": -111.9260519,
    "alt": 383
  },
  {
    "name": "North Las Vegas",
    "lat": 36.1988592,
    "lng": -115.1175013,
    "alt": 564
  },
  {
    "name": "Fremont",
    "lat": 37.5482697,
    "lng": -121.9885719,
    "alt": 16
  },
  {
    "name": "Boise City",
    "lat": 43.6187102,
    "lng": -116.2146068,
    "alt": 816
  },
  {
    "name": "Richmond",
    "lat": 37.5407246,
    "lng": -77.4360481,
    "alt": 49
  },
  {
    "name": "San Bernardino",
    "lat": 34.1083449,
    "lng": -117.2897652,
    "alt": 319
  },
  {
    "name": "Birmingham",
    "lat": 33.5206608,
    "lng": -86.80248999999999,
    "alt": 186
  },
  {
    "name": "Spokane",
    "lat": 47.6587802,
    "lng": -117.4260466,
    "alt": 564
  },
  {
    "name": "Rochester",
    "lat": 43.16103,
    "lng": -77.6109219,
    "alt": 154
  },
  {
    "name": "Des Moines",
    "lat": 41.6005448,
    "lng": -93.6091064,
    "alt": 265
  },
  {
    "name": "Modesto",
    "lat": 37.63909719999999,
    "lng": -120.9968782,
    "alt": 27
  },
  {
    "name": "Fayetteville",
    "lat": 35.0526641,
    "lng": -78.87835849999999,
    "alt": 30
  },
  {
    "name": "Tacoma",
    "lat": 47.2528768,
    "lng": -122.4442906,
    "alt": 72
  },
  {
    "name": "Oxnard",
    "lat": 34.1975048,
    "lng": -119.1770516,
    "alt": 16
  },
  {
    "name": "Fontana",
    "lat": 34.0922335,
    "lng": -117.435048,
    "alt": 376
  },
  {
    "name": "Columbus",
    "lat": 32.4609764,
    "lng": -84.9877094,
    "alt": 73
  },
  {
    "name": "Montgomery",
    "lat": 32.3668052,
    "lng": -86.2999689,
    "alt": 71
  },
  {
    "name": "Moreno Valley",
    "lat": 33.9424658,
    "lng": -117.2296717,
    "alt": 508
  },
  {
    "name": "Shreveport",
    "lat": 32.5251516,
    "lng": -93.7501789,
    "alt": 46
  },
  {
    "name": "Aurora",
    "lat": 41.7605849,
    "lng": -88.32007150000001,
    "alt": 206
  },
  {
    "name": "Yonkers",
    "lat": 40.9312099,
    "lng": -73.89874689999999,
    "alt": 28
  },
  {
    "name": "Akron",
    "lat": 41.0814447,
    "lng": -81.51900529999999,
    "alt": 287
  },
  {
    "name": "Huntington Beach",
    "lat": 33.660297,
    "lng": -117.9992265,
    "alt": 11
  },
  {
    "name": "Little Rock",
    "lat": 34.7464809,
    "lng": -92.28959479999999,
    "alt": 97
  },
  {
    "name": "Augusta-Richmond County",
    "lat": 33.4734978,
    "lng": -82.0105148,
    "alt": 93
  },
  {
    "name": "Amarillo",
    "lat": 35.2219971,
    "lng": -101.8312969,
    "alt": 1117
  },
  {
    "name": "Glendale",
    "lat": 34.1425078,
    "lng": -118.255075,
    "alt": 158
  },
  {
    "name": "Mobile",
    "lat": 30.6953657,
    "lng": -88.0398912,
    "alt": 1
  },
  {
    "name": "Grand Rapids",
    "lat": 42.9633599,
    "lng": -85.6680863,
    "alt": 194
  },
  {
    "name": "Salt Lake City",
    "lat": 40.7607793,
    "lng": -111.8910474,
    "alt": 1299
  },
  {
    "name": "Tallahassee",
    "lat": 30.4382559,
    "lng": -84.28073289999999,
    "alt": 62
  },
  {
    "name": "Huntsville",
    "lat": 34.7303688,
    "lng": -86.5861037,
    "alt": 192
  },
  {
    "name": "Grand Prairie",
    "lat": 32.7459645,
    "lng": -96.99778459999999,
    "alt": 156
  },
  {
    "name": "Knoxville",
    "lat": 35.9606384,
    "lng": -83.9207392,
    "alt": 273
  },
  {
    "name": "Worcester",
    "lat": 42.2625932,
    "lng": -71.8022934,
    "alt": 145
  },
  {
    "name": "Newport News",
    "lat": 37.0870821,
    "lng": -76.4730122,
    "alt": 9
  },
  {
    "name": "Brownsville",
    "lat": 25.9017472,
    "lng": -97.4974838,
    "alt": 10
  },
  {
    "name": "Overland Park",
    "lat": 38.9822282,
    "lng": -94.6707917,
    "alt": 328
  },
  {
    "name": "Santa Clarita",
    "lat": 34.3916641,
    "lng": -118.542586,
    "alt": 367
  },
  {
    "name": "Providence",
    "lat": 41.8239891,
    "lng": -71.4128343,
    "alt": 2
  },
  {
    "name": "Garden Grove",
    "lat": 33.7739053,
    "lng": -117.9414477,
    "alt": 26
  },
  {
    "name": "Chattanooga",
    "lat": 35.0456297,
    "lng": -85.3096801,
    "alt": 205
  },
  {
    "name": "Oceanside",
    "lat": 33.1958696,
    "lng": -117.3794834,
    "alt": 20
  },
  {
    "name": "Jackson",
    "lat": 32.2987573,
    "lng": -90.1848103,
    "alt": 85
  },
  {
    "name": "Fort Lauderdale",
    "lat": 26.1224386,
    "lng": -80.13731740000001,
    "alt": 1
  },
  {
    "name": "Santa Rosa",
    "lat": 38.440429,
    "lng": -122.7140548,
    "alt": 50
  },
  {
    "name": "Rancho Cucamonga",
    "lat": 34.10639889999999,
    "lng": -117.5931084,
    "alt": 368
  },
  {
    "name": "Port St. Lucie",
    "lat": 27.2730492,
    "lng": -80.3582261,
    "alt": 5
  },
  {
    "name": "Tempe",
    "lat": 33.4255104,
    "lng": -111.9400054,
    "alt": 354
  },
  {
    "name": "Ontario",
    "lat": 34.0633443,
    "lng": -117.6508876,
    "alt": 304
  },
  {
    "name": "Vancouver",
    "lat": 45.6387281,
    "lng": -122.6614861,
    "alt": 51
  },
  {
    "name": "Cape Coral",
    "lat": 26.5628537,
    "lng": -81.9495331,
    "alt": 1
  },
  {
    "name": "Sioux Falls",
    "lat": 43.5445959,
    "lng": -96.73110340000001,
    "alt": 441
  },
  {
    "name": "Springfield",
    "lat": 37.2089572,
    "lng": -93.29229889999999,
    "alt": 398
  },
  {
    "name": "Peoria",
    "lat": 33.5805955,
    "lng": -112.2373779,
    "alt": 348
  },
  {
    "name": "Pembroke Pines",
    "lat": 26.007765,
    "lng": -80.2962555,
    "alt": 1
  },
  {
    "name": "Elk Grove",
    "lat": 38.4087993,
    "lng": -121.3716178,
    "alt": 14
  },
  {
    "name": "Salem",
    "lat": 44.9428975,
    "lng": -123.0350963,
    "alt": 48
  },
  {
    "name": "Lancaster",
    "lat": 34.6867846,
    "lng": -118.1541632,
    "alt": 720
  },
  {
    "name": "Corona",
    "lat": 33.8752935,
    "lng": -117.5664384,
    "alt": 207
  },
  {
    "name": "Eugene",
    "lat": 44.0520691,
    "lng": -123.0867536,
    "alt": 130
  },
  {
    "name": "Palmdale",
    "lat": 34.5794343,
    "lng": -118.1164613,
    "alt": 810
  },
  {
    "name": "Salinas",
    "lat": 36.6777372,
    "lng": -121.6555013,
    "alt": 15
  },
  {
    "name": "Springfield",
    "lat": 42.1014831,
    "lng": -72.589811,
    "alt": 25
  },
  {
    "name": "Pasadena",
    "lat": 29.6910625,
    "lng": -95.2091006,
    "alt": 9
  },
  {
    "name": "Fort Collins",
    "lat": 40.5852602,
    "lng": -105.084423,
    "alt": 1524
  },
  {
    "name": "Hayward",
    "lat": 37.6688205,
    "lng": -122.0807964,
    "alt": 33
  },
  {
    "name": "Pomona",
    "lat": 34.055103,
    "lng": -117.7499909,
    "alt": 259
  },
  {
    "name": "Cary",
    "lat": 35.79154,
    "lng": -78.7811169,
    "alt": 149
  },
  {
    "name": "Rockford",
    "lat": 42.2711311,
    "lng": -89.0939952,
    "alt": 216
  },
  {
    "name": "Alexandria",
    "lat": 38.8048355,
    "lng": -77.0469214,
    "alt": 10
  },
  {
    "name": "Escondido",
    "lat": 33.1192068,
    "lng": -117.086421,
    "alt": 196
  },
  {
    "name": "McKinney",
    "lat": 33.1972465,
    "lng": -96.6397822,
    "alt": 181
  },
  {
    "name": "Kansas City",
    "lat": 39.114053,
    "lng": -94.6274636,
    "alt": 265
  },
  {
    "name": "Joliet",
    "lat": 41.525031,
    "lng": -88.0817251,
    "alt": 164
  },
  {
    "name": "Sunnyvale",
    "lat": 37.36883,
    "lng": -122.0363496,
    "alt": 38
  },
  {
    "name": "Torrance",
    "lat": 33.8358492,
    "lng": -118.3406288,
    "alt": 25
  },
  {
    "name": "Bridgeport",
    "lat": 41.1865478,
    "lng": -73.19517669999999,
    "alt": 17
  },
  {
    "name": "Lakewood",
    "lat": 39.7047095,
    "lng": -105.0813734,
    "alt": 1681
  },
  {
    "name": "Hollywood",
    "lat": 26.0112014,
    "lng": -80.1494901,
    "alt": 2
  },
  {
    "name": "Paterson",
    "lat": 40.9167654,
    "lng": -74.17181099999999,
    "alt": 25
  },
  {
    "name": "Naperville",
    "lat": 41.7508391,
    "lng": -88.1535352,
    "alt": 213
  },
  {
    "name": "Syracuse",
    "lat": 43.0481221,
    "lng": -76.14742439999999,
    "alt": 121
  },
  {
    "name": "Mesquite",
    "lat": 32.76679550000001,
    "lng": -96.5991593,
    "alt": 150
  },
  {
    "name": "Dayton",
    "lat": 39.7589478,
    "lng": -84.1916069,
    "alt": 225
  },
  {
    "name": "Savannah",
    "lat": 32.0835407,
    "lng": -81.09983419999999,
    "alt": 5
  },
  {
    "name": "Clarksville",
    "lat": 36.5297706,
    "lng": -87.3594528,
    "alt": 144
  },
  {
    "name": "Orange",
    "lat": 33.7877944,
    "lng": -117.8531119,
    "alt": 57
  },
  {
    "name": "Pasadena",
    "lat": 34.1477849,
    "lng": -118.1445155,
    "alt": 262
  },
  {
    "name": "Fullerton",
    "lat": 33.8703596,
    "lng": -117.9242966,
    "alt": 49
  },
  {
    "name": "Killeen",
    "lat": 31.1171194,
    "lng": -97.72779589999999,
    "alt": 252
  },
  {
    "name": "Frisco",
    "lat": 33.1506744,
    "lng": -96.82361159999999,
    "alt": 212
  },
  {
    "name": "Hampton",
    "lat": 37.0298687,
    "lng": -76.34522179999999,
    "alt": 1
  },
  {
    "name": "McAllen",
    "lat": 26.2034071,
    "lng": -98.23001239999999,
    "alt": 36
  },
  {
    "name": "Warren",
    "lat": 42.5144566,
    "lng": -83.01465259999999,
    "alt": 187
  },
  {
    "name": "Bellevue",
    "lat": 47.610377,
    "lng": -122.2006786,
    "alt": 26
  },
  {
    "name": "West Valley City",
    "lat": 40.6916132,
    "lng": -112.0010501,
    "alt": 1311
  },
  {
    "name": "Columbia",
    "lat": 34.0007104,
    "lng": -81.0348144,
    "alt": 87
  },
  {
    "name": "Olathe",
    "lat": 38.8813958,
    "lng": -94.81912849999999,
    "alt": 314
  },
  {
    "name": "Sterling Heights",
    "lat": 42.5803122,
    "lng": -83.0302033,
    "alt": 185
  },
  {
    "name": "New Haven",
    "lat": 41.308274,
    "lng": -72.9278835,
    "alt": 16
  },
  {
    "name": "Miramar",
    "lat": 25.9860762,
    "lng": -80.30356019999999,
    "alt": 1
  },
  {
    "name": "Waco",
    "lat": 31.549333,
    "lng": -97.1466695,
    "alt": 142
  },
  {
    "name": "Thousand Oaks",
    "lat": 34.1705609,
    "lng": -118.8375937,
    "alt": 269
  },
  {
    "name": "Cedar Rapids",
    "lat": 41.9778795,
    "lng": -91.6656232,
    "alt": 221
  },
  {
    "name": "Charleston",
    "lat": 32.7764749,
    "lng": -79.93105120000001,
    "alt": 6
  },
  {
    "name": "Visalia",
    "lat": 36.3302284,
    "lng": -119.2920585,
    "alt": 101
  },
  {
    "name": "Topeka",
    "lat": 39.0558235,
    "lng": -95.68901849999999,
    "alt": 283
  },
  {
    "name": "Elizabeth",
    "lat": 40.6639916,
    "lng": -74.2107006,
    "alt": 5
  },
  {
    "name": "Gainesville",
    "lat": 29.6516344,
    "lng": -82.32482619999999,
    "alt": 53
  },
  {
    "name": "Thornton",
    "lat": 39.8680412,
    "lng": -104.9719243,
    "alt": 1631
  },
  {
    "name": "Roseville",
    "lat": 38.7521235,
    "lng": -121.2880059,
    "alt": 51
  },
  {
    "name": "Carrollton",
    "lat": 32.9756415,
    "lng": -96.8899636,
    "alt": 153
  },
  {
    "name": "Coral Springs",
    "lat": 26.271192,
    "lng": -80.2706044,
    "alt": 2
  },
  {
    "name": "Stamford",
    "lat": 41.0534302,
    "lng": -73.5387341,
    "alt": 6
  },
  {
    "name": "Simi Valley",
    "lat": 34.2694474,
    "lng": -118.781482,
    "alt": 234
  },
  {
    "name": "Concord",
    "lat": 37.9779776,
    "lng": -122.0310733,
    "alt": 23
  },
  {
    "name": "Hartford",
    "lat": 41.76371109999999,
    "lng": -72.6850932,
    "alt": 19
  },
  {
    "name": "Kent",
    "lat": 47.3809335,
    "lng": -122.2348431,
    "alt": 12
  },
  {
    "name": "Lafayette",
    "lat": 30.2240897,
    "lng": -92.0198427,
    "alt": 10
  },
  {
    "name": "Midland",
    "lat": 31.9973456,
    "lng": -102.0779146,
    "alt": 846
  },
  {
    "name": "Surprise",
    "lat": 33.6292337,
    "lng": -112.3679279,
    "alt": 367
  },
  {
    "name": "Denton",
    "lat": 33.2148412,
    "lng": -97.13306829999999,
    "alt": 200
  },
  {
    "name": "Victorville",
    "lat": 34.5362184,
    "lng": -117.2927641,
    "alt": 833
  },
  {
    "name": "Evansville",
    "lat": 37.9715592,
    "lng": -87.5710898,
    "alt": 116
  },
  {
    "name": "Santa Clara",
    "lat": 37.3541079,
    "lng": -121.9552356,
    "alt": 22
  },
  {
    "name": "Abilene",
    "lat": 32.4487364,
    "lng": -99.73314390000002,
    "alt": 524
  },
  {
    "name": "Athens-Clarke County",
    "lat": 33.9519347,
    "lng": -83.357567,
    "alt": 199
  },
  {
    "name": "Vallejo",
    "lat": 38.1040864,
    "lng": -122.2566367,
    "alt": 20
  },
  {
    "name": "Allentown",
    "lat": 40.6084305,
    "lng": -75.4901833,
    "alt": 103
  },
  {
    "name": "Norman",
    "lat": 35.2225668,
    "lng": -97.4394777,
    "alt": 357
  },
  {
    "name": "Beaumont",
    "lat": 30.080174,
    "lng": -94.1265562,
    "alt": 4
  },
  {
    "name": "Independence",
    "lat": 39.0911161,
    "lng": -94.41550679999999,
    "alt": 313
  },
  {
    "name": "Murfreesboro",
    "lat": 35.8456213,
    "lng": -86.39027,
    "alt": 185
  },
  {
    "name": "Ann Arbor",
    "lat": 42.2808256,
    "lng": -83.7430378,
    "alt": 263
  },
  {
    "name": "Springfield",
    "lat": 39.78172130000001,
    "lng": -89.6501481,
    "alt": 184
  },
  {
    "name": "Berkeley",
    "lat": 37.8715926,
    "lng": -122.272747,
    "alt": 51
  },
  {
    "name": "Peoria",
    "lat": 40.6936488,
    "lng": -89.5889864,
    "alt": 152
  },
  {
    "name": "Provo",
    "lat": 40.2338438,
    "lng": -111.6585337,
    "alt": 1387
  },
  {
    "name": "El Monte",
    "lat": 34.0686206,
    "lng": -118.0275667,
    "alt": 91
  },
  {
    "name": "Columbia",
    "lat": 38.9517053,
    "lng": -92.3340724,
    "alt": 215
  },
  {
    "name": "Lansing",
    "lat": 42.732535,
    "lng": -84.5555347,
    "alt": 260
  },
  {
    "name": "Fargo",
    "lat": 46.8771863,
    "lng": -96.7898034,
    "alt": 275
  },
  {
    "name": "Downey",
    "lat": 33.9401088,
    "lng": -118.1331593,
    "alt": 35
  },
  {
    "name": "Costa Mesa",
    "lat": 33.6411316,
    "lng": -117.9186689,
    "alt": 29
  },
  {
    "name": "Wilmington",
    "lat": 34.2257255,
    "lng": -77.9447102,
    "alt": 12
  },
  {
    "name": "Arvada",
    "lat": 39.8027644,
    "lng": -105.0874842,
    "alt": 1628
  },
  {
    "name": "Inglewood",
    "lat": 33.9616801,
    "lng": -118.3531311,
    "alt": 39
  },
  {
    "name": "Miami Gardens",
    "lat": 25.9420377,
    "lng": -80.2456045,
    "alt": 1
  },
  {
    "name": "Carlsbad",
    "lat": 33.1580933,
    "lng": -117.3505939,
    "alt": 15
  },
  {
    "name": "Westminster",
    "lat": 39.8366528,
    "lng": -105.0372046,
    "alt": 1640
  },
  {
    "name": "Rochester",
    "lat": 44.0121221,
    "lng": -92.4801989,
    "alt": 334
  },
  {
    "name": "Odessa",
    "lat": 31.8456816,
    "lng": -102.3676431,
    "alt": 883
  },
  {
    "name": "Manchester",
    "lat": 42.9956397,
    "lng": -71.4547891,
    "alt": 78
  },
  {
    "name": "Elgin",
    "lat": 42.0354084,
    "lng": -88.2825668,
    "alt": 217
  },
  {
    "name": "West Jordan",
    "lat": 40.6096698,
    "lng": -111.9391031,
    "alt": 1332
  },
  {
    "name": "Round Rock",
    "lat": 30.5082551,
    "lng": -97.678896,
    "alt": 222
  },
  {
    "name": "Clearwater",
    "lat": 27.9658533,
    "lng": -82.8001026,
    "alt": 8
  },
  {
    "name": "Gresham",
    "lat": 45.5001357,
    "lng": -122.4302013,
    "alt": 98
  },
  {
    "name": "Fairfield",
    "lat": 38.24935809999999,
    "lng": -122.0399663,
    "alt": 3
  },
  {
    "name": "Billings",
    "lat": 45.7832856,
    "lng": -108.5006904,
    "alt": 946
  },
  {
    "name": "Lowell",
    "lat": 42.6334247,
    "lng": -71.31617179999999,
    "alt": 33
  },
  {
    "name": "San Buenaventura (Ventura)",
    "lat": 34.274646,
    "lng": -119.2290316,
    "alt": 71
  },
  {
    "name": "Pueblo",
    "lat": 38.2544472,
    "lng": -104.6091409,
    "alt": 1430
  },
  {
    "name": "High Point",
    "lat": 35.9556923,
    "lng": -80.0053176,
    "alt": 280
  },
  {
    "name": "West Covina",
    "lat": 34.0686208,
    "lng": -117.9389526,
    "alt": 115
  },
  {
    "name": "Richmond",
    "lat": 37.9357576,
    "lng": -122.3477486,
    "alt": 13
  },
  {
    "name": "Murrieta",
    "lat": 33.5539143,
    "lng": -117.2139232,
    "alt": 333
  },
  {
    "name": "Cambridge",
    "lat": 42.3736158,
    "lng": -71.10973349999999,
    "alt": 6
  },
  {
    "name": "Antioch",
    "lat": 38.0049214,
    "lng": -121.805789,
    "alt": 12
  },
  {
    "name": "Temecula",
    "lat": 33.4936391,
    "lng": -117.1483648,
    "alt": 308
  },
  {
    "name": "Norwalk",
    "lat": 33.9022367,
    "lng": -118.081733,
    "alt": 27
  },
  {
    "name": "Centennial",
    "lat": 39.5807452,
    "lng": -104.8771726,
    "alt": 1781
  },
  {
    "name": "Everett",
    "lat": 47.9789848,
    "lng": -122.2020794,
    "alt": 23
  },
  {
    "name": "Palm Bay",
    "lat": 28.0344621,
    "lng": -80.5886646,
    "alt": 4
  },
  {
    "name": "Wichita Falls",
    "lat": 33.9137085,
    "lng": -98.4933873,
    "alt": 288
  },
  {
    "name": "Green Bay",
    "lat": 44.51915899999999,
    "lng": -88.019826,
    "alt": 179
  },
  {
    "name": "Daly City",
    "lat": 37.6879241,
    "lng": -122.4702079,
    "alt": 54
  },
  {
    "name": "Burbank",
    "lat": 34.1808392,
    "lng": -118.3089661,
    "alt": 184
  },
  {
    "name": "Richardson",
    "lat": 32.9483335,
    "lng": -96.7298519,
    "alt": 191
  },
  {
    "name": "Pompano Beach",
    "lat": 26.2378597,
    "lng": -80.1247667,
    "alt": 4
  },
  {
    "name": "North Charleston",
    "lat": 32.8546197,
    "lng": -79.9748103,
    "alt": 5
  },
  {
    "name": "Broken Arrow",
    "lat": 36.060949,
    "lng": -95.7974526,
    "alt": 223
  },
  {
    "name": "Boulder",
    "lat": 40.0149856,
    "lng": -105.2705456,
    "alt": 1624
  },
  {
    "name": "West Palm Beach",
    "lat": 26.7153424,
    "lng": -80.0533746,
    "alt": 3
  },
  {
    "name": "Santa Maria",
    "lat": 34.9530337,
    "lng": -120.4357191,
    "alt": 66
  },
  {
    "name": "El Cajon",
    "lat": 32.7947731,
    "lng": -116.9625269,
    "alt": 131
  },
  {
    "name": "Davenport",
    "lat": 41.5236437,
    "lng": -90.5776367,
    "alt": 178
  },
  {
    "name": "Rialto",
    "lat": 34.1064001,
    "lng": -117.3703235,
    "alt": 382
  },
  {
    "name": "Las Cruces",
    "lat": 32.3199396,
    "lng": -106.7636538,
    "alt": 1217
  },
  {
    "name": "San Mateo",
    "lat": 37.5629917,
    "lng": -122.3255254,
    "alt": 13
  },
  {
    "name": "Lewisville",
    "lat": 33.046233,
    "lng": -96.994174,
    "alt": 158
  },
  {
    "name": "South Bend",
    "lat": 41.6763545,
    "lng": -86.25198979999999,
    "alt": 215
  },
  {
    "name": "Lakeland",
    "lat": 28.0394654,
    "lng": -81.9498042,
    "alt": 57
  },
  {
    "name": "Erie",
    "lat": 42.12922409999999,
    "lng": -80.085059,
    "alt": 198
  },
  {
    "name": "Tyler",
    "lat": 32.3512601,
    "lng": -95.30106239999999,
    "alt": 162
  },
  {
    "name": "Pearland",
    "lat": 29.5635666,
    "lng": -95.2860474,
    "alt": 15
  },
  {
    "name": "College Station",
    "lat": 30.627977,
    "lng": -96.3344068,
    "alt": 102
  },
  {
    "name": "Kenosha",
    "lat": 42.5847425,
    "lng": -87.82118539999999,
    "alt": 183
  },
  {
    "name": "Sandy Springs",
    "lat": 33.9304352,
    "lng": -84.3733147,
    "alt": 318
  },
  {
    "name": "Clovis",
    "lat": 36.8252277,
    "lng": -119.7029194,
    "alt": 109
  },
  {
    "name": "Flint",
    "lat": 43.0125274,
    "lng": -83.6874562,
    "alt": 228
  },
  {
    "name": "Roanoke",
    "lat": 37.2709704,
    "lng": -79.9414266,
    "alt": 284
  },
  {
    "name": "Albany",
    "lat": 42.6525793,
    "lng": -73.7562317,
    "alt": 41
  },
  {
    "name": "Jurupa Valley",
    "lat": 33.9971974,
    "lng": -117.4854802,
    "alt": 220
  },
  {
    "name": "Compton",
    "lat": 33.8958492,
    "lng": -118.2200712,
    "alt": 20
  },
  {
    "name": "San Angelo",
    "lat": 31.4637723,
    "lng": -100.4370375,
    "alt": 561
  },
  {
    "name": "Hillsboro",
    "lat": 45.5228939,
    "lng": -122.989827,
    "alt": 59
  },
  {
    "name": "Lawton",
    "lat": 34.6035669,
    "lng": -98.39592909999999,
    "alt": 338
  },
  {
    "name": "Renton",
    "lat": 47.48287759999999,
    "lng": -122.2170661,
    "alt": 10
  },
  {
    "name": "Vista",
    "lat": 33.2000368,
    "lng": -117.2425355,
    "alt": 99
  },
  {
    "name": "Davie",
    "lat": 26.0764783,
    "lng": -80.25211569999999,
    "alt": 1
  },
  {
    "name": "Greeley",
    "lat": 40.4233142,
    "lng": -104.7091322,
    "alt": 1424
  },
  {
    "name": "Mission Viejo",
    "lat": 33.6000232,
    "lng": -117.6719953,
    "alt": 122
  },
  {
    "name": "Portsmouth",
    "lat": 36.8354258,
    "lng": -76.2982742,
    "alt": 2
  },
  {
    "name": "Dearborn",
    "lat": 42.3222599,
    "lng": -83.17631449999999,
    "alt": 179
  },
  {
    "name": "South Gate",
    "lat": 33.954737,
    "lng": -118.2120161,
    "alt": 34
  },
  {
    "name": "Tuscaloosa",
    "lat": 33.2098407,
    "lng": -87.56917349999999,
    "alt": 67
  },
  {
    "name": "Livonia",
    "lat": 42.36837,
    "lng": -83.35270969999999,
    "alt": 194
  },
  {
    "name": "New Bedford",
    "lat": 41.6362152,
    "lng": -70.93420499999999,
    "alt": 28
  },
  {
    "name": "Vacaville",
    "lat": 38.3565773,
    "lng": -121.9877444,
    "alt": 52
  },
  {
    "name": "Brockton",
    "lat": 42.0834335,
    "lng": -71.0183787,
    "alt": 33
  },
  {
    "name": "Roswell",
    "lat": 34.0232431,
    "lng": -84.3615555,
    "alt": 328
  },
  {
    "name": "Beaverton",
    "lat": 45.48706199999999,
    "lng": -122.8037102,
    "alt": 58
  },
  {
    "name": "Quincy",
    "lat": 42.2528772,
    "lng": -71.0022705,
    "alt": 10
  },
  {
    "name": "Sparks",
    "lat": 39.5349112,
    "lng": -119.7526886,
    "alt": 1345
  },
  {
    "name": "Yakima",
    "lat": 46.6020711,
    "lng": -120.5058987,
    "alt": 325
  },
  {
    "name": "Lee's Summit",
    "lat": 38.9108408,
    "lng": -94.3821724,
    "alt": 315
  },
  {
    "name": "Federal Way",
    "lat": 47.3223221,
    "lng": -122.3126222,
    "alt": 141
  },
  {
    "name": "Carson",
    "lat": 33.8316745,
    "lng": -118.281693,
    "alt": 11
  },
  {
    "name": "Santa Monica",
    "lat": 34.0194543,
    "lng": -118.4911912,
    "alt": 30
  },
  {
    "name": "Hesperia",
    "lat": 34.4263886,
    "lng": -117.3008784,
    "alt": 969
  },
  {
    "name": "Allen",
    "lat": 33.1031744,
    "lng": -96.67055030000002,
    "alt": 200
  },
  {
    "name": "Yuma",
    "lat": 32.6926512,
    "lng": -114.6276916,
    "alt": 61
  },
  {
    "name": "Westminster",
    "lat": 33.7513419,
    "lng": -117.9939921,
    "alt": 9
  },
  {
    "name": "Orem",
    "lat": 40.2968979,
    "lng": -111.6946475,
    "alt": 1454
  },
  {
    "name": "Lynn",
    "lat": 42.46676300000001,
    "lng": -70.9494938,
    "alt": 14
  },
  {
    "name": "Redding",
    "lat": 40.5865396,
    "lng": -122.3916754,
    "alt": 172
  },
  {
    "name": "Spokane Valley",
    "lat": 47.6732281,
    "lng": -117.2393748,
    "alt": 607
  },
  {
    "name": "Miami Beach",
    "lat": 25.790654,
    "lng": -80.1300455,
    "alt": 1
  },
  {
    "name": "League City",
    "lat": 29.5074538,
    "lng": -95.0949303,
    "alt": 6
  },
  {
    "name": "Lawrence",
    "lat": 38.9716689,
    "lng": -95.2352501,
    "alt": 262
  },
  {
    "name": "Santa Barbara",
    "lat": 34.4208305,
    "lng": -119.6981901,
    "alt": 12
  },
  {
    "name": "Plantation",
    "lat": 26.1275862,
    "lng": -80.23310359999999,
    "alt": 1
  },
  {
    "name": "Sandy",
    "lat": 40.5649781,
    "lng": -111.8389726,
    "alt": 1470
  },
  {
    "name": "Sunrise",
    "lat": 26.1669711,
    "lng": -80.25659499999999,
    "alt": 2
  },
  {
    "name": "Macon",
    "lat": 32.8406946,
    "lng": -83.6324022,
    "alt": 114
  },
  {
    "name": "Longmont",
    "lat": 40.1672068,
    "lng": -105.1019275,
    "alt": 1518
  },
  {
    "name": "Boca Raton",
    "lat": 26.3683064,
    "lng": -80.1289321,
    "alt": 2
  },
  {
    "name": "San Marcos",
    "lat": 33.1433723,
    "lng": -117.1661449,
    "alt": 176
  },
  {
    "name": "Greenville",
    "lat": 35.612661,
    "lng": -77.3663538,
    "alt": 17
  },
  {
    "name": "Waukegan",
    "lat": 42.3636331,
    "lng": -87.84479379999999,
    "alt": 198
  },
  {
    "name": "Fall River",
    "lat": 41.7014912,
    "lng": -71.1550451,
    "alt": 33
  },
  {
    "name": "Chico",
    "lat": 39.7284944,
    "lng": -121.8374777,
    "alt": 59
  },
  {
    "name": "Newton",
    "lat": 42.3370413,
    "lng": -71.20922139999999,
    "alt": 28
  },
  {
    "name": "San Leandro",
    "lat": 37.7249296,
    "lng": -122.1560768,
    "alt": 14
  },
  {
    "name": "Reading",
    "lat": 40.3356483,
    "lng": -75.9268747,
    "alt": 90
  },
  {
    "name": "Norwalk",
    "lat": 41.11774399999999,
    "lng": -73.4081575,
    "alt": 9
  },
  {
    "name": "Fort Smith",
    "lat": 35.3859242,
    "lng": -94.39854749999999,
    "alt": 130
  },
  {
    "name": "Newport Beach",
    "lat": 33.6189101,
    "lng": -117.9289469,
    "alt": 2
  },
  {
    "name": "Asheville",
    "lat": 35.5950581,
    "lng": -82.5514869,
    "alt": 675
  },
  {
    "name": "Nashua",
    "lat": 42.7653662,
    "lng": -71.46756599999999,
    "alt": 45
  },
  {
    "name": "Edmond",
    "lat": 35.6528323,
    "lng": -97.47809540000002,
    "alt": 366
  },
  {
    "name": "Whittier",
    "lat": 33.9791793,
    "lng": -118.032844,
    "alt": 112
  },
  {
    "name": "Nampa",
    "lat": 43.5407172,
    "lng": -116.5634624,
    "alt": 765
  },
  {
    "name": "Bloomington",
    "lat": 44.840798,
    "lng": -93.2982799,
    "alt": 251
  },
  {
    "name": "Deltona",
    "lat": 28.9005446,
    "lng": -81.26367379999999,
    "alt": 9
  },
  {
    "name": "Hawthorne",
    "lat": 33.9164032,
    "lng": -118.3525748,
    "alt": 21
  },
  {
    "name": "Duluth",
    "lat": 46.78667189999999,
    "lng": -92.1004852,
    "alt": 201
  },
  {
    "name": "Carmel",
    "lat": 39.978371,
    "lng": -86.1180435,
    "alt": 259
  },
  {
    "name": "Suffolk",
    "lat": 36.7282054,
    "lng": -76.5835621,
    "alt": 14
  },
  {
    "name": "Clifton",
    "lat": 40.8584328,
    "lng": -74.16375529999999,
    "alt": 56
  },
  {
    "name": "Citrus Heights",
    "lat": 38.7071247,
    "lng": -121.2810611,
    "alt": 50
  },
  {
    "name": "Livermore",
    "lat": 37.6818745,
    "lng": -121.7680088,
    "alt": 149
  },
  {
    "name": "Tracy",
    "lat": 37.7396513,
    "lng": -121.4252227,
    "alt": 15
  },
  {
    "name": "Alhambra",
    "lat": 34.095287,
    "lng": -118.1270146,
    "alt": 148
  },
  {
    "name": "Kirkland",
    "lat": 47.6814875,
    "lng": -122.2087353,
    "alt": 50
  },
  {
    "name": "Trenton",
    "lat": 40.2170534,
    "lng": -74.7429384,
    "alt": 16
  },
  {
    "name": "Ogden",
    "lat": 41.223,
    "lng": -111.9738304,
    "alt": 1311
  },
  {
    "name": "Hoover",
    "lat": 33.4053867,
    "lng": -86.8113781,
    "alt": 175
  },
  {
    "name": "Cicero",
    "lat": 41.8455877,
    "lng": -87.7539448,
    "alt": 184
  },
  {
    "name": "Fishers",
    "lat": 39.9567548,
    "lng": -86.01335,
    "alt": 248
  },
  {
    "name": "Sugar Land",
    "lat": 29.6196787,
    "lng": -95.6349463,
    "alt": 23
  },
  {
    "name": "Danbury",
    "lat": 41.394817,
    "lng": -73.4540111,
    "alt": 120
  },
  {
    "name": "Meridian",
    "lat": 43.6121087,
    "lng": -116.3915131,
    "alt": 793
  },
  {
    "name": "Indio",
    "lat": 33.7205771,
    "lng": -116.2155619,
    "alt": -3
  },
  {
    "name": "Concord",
    "lat": 35.4087517,
    "lng": -80.579511,
    "alt": 214
  },
  {
    "name": "Menifee",
    "lat": 33.6971468,
    "lng": -117.185294,
    "alt": 435
  },
  {
    "name": "Champaign",
    "lat": 40.1164204,
    "lng": -88.2433829,
    "alt": 224
  },
  {
    "name": "Buena Park",
    "lat": 33.8675143,
    "lng": -117.9981181,
    "alt": 22
  },
  {
    "name": "Troy",
    "lat": 42.6064095,
    "lng": -83.1497751,
    "alt": 227
  },
  {
    "name": "O'Fallon",
    "lat": 38.8106075,
    "lng": -90.69984769999999,
    "alt": 165
  },
  {
    "name": "Johns Creek",
    "lat": 34.0289259,
    "lng": -84.198579,
    "alt": 286
  },
  {
    "name": "Bellingham",
    "lat": 48.74908,
    "lng": -122.4781473,
    "alt": 26
  },
  {
    "name": "Westland",
    "lat": 42.32420399999999,
    "lng": -83.400211,
    "alt": 202
  },
  {
    "name": "Bloomington",
    "lat": 39.165325,
    "lng": -86.52638569999999,
    "alt": 236
  },
  {
    "name": "Sioux City",
    "lat": 42.4999942,
    "lng": -96.40030689999999,
    "alt": 364
  },
  {
    "name": "Warwick",
    "lat": 41.7001009,
    "lng": -71.4161671,
    "alt": 10
  },
  {
    "name": "Hemet",
    "lat": 33.7475203,
    "lng": -116.9719684,
    "alt": 485
  },
  {
    "name": "Longview",
    "lat": 32.5007037,
    "lng": -94.74048909999999,
    "alt": 113
  },
  {
    "name": "Farmington Hills",
    "lat": 42.4989936,
    "lng": -83.3677168,
    "alt": 259
  },
  {
    "name": "Bend",
    "lat": 44.0581728,
    "lng": -121.3153096,
    "alt": 1105
  },
  {
    "name": "Lakewood",
    "lat": 33.8536269,
    "lng": -118.1339563,
    "alt": 13
  },
  {
    "name": "Merced",
    "lat": 37.3021632,
    "lng": -120.4829677,
    "alt": 51
  },
  {
    "name": "Mission",
    "lat": 26.2159066,
    "lng": -98.32529319999999,
    "alt": 43
  },
  {
    "name": "Chino",
    "lat": 34.0122346,
    "lng": -117.688944,
    "alt": 221
  },
  {
    "name": "Redwood City",
    "lat": 37.48521520000001,
    "lng": -122.2363548,
    "alt": 5
  },
  {
    "name": "Edinburg",
    "lat": 26.3017374,
    "lng": -98.1633432,
    "alt": 29
  },
  {
    "name": "Cranston",
    "lat": 41.7798226,
    "lng": -71.4372796,
    "alt": 18
  },
  {
    "name": "Parma",
    "lat": 41.4047742,
    "lng": -81.7229086,
    "alt": 263
  },
  {
    "name": "New Rochelle",
    "lat": 40.9114882,
    "lng": -73.7823549,
    "alt": 25
  },
  {
    "name": "Lake Forest",
    "lat": 33.6469661,
    "lng": -117.689218,
    "alt": 145
  },
  {
    "name": "Napa",
    "lat": 38.2975381,
    "lng": -122.286865,
    "alt": 6
  },
  {
    "name": "Hammond",
    "lat": 41.5833688,
    "lng": -87.5000412,
    "alt": 182
  },
  {
    "name": "Fayetteville",
    "lat": 36.0625795,
    "lng": -94.1574263,
    "alt": 427
  },
  {
    "name": "Bloomington",
    "lat": 40.4842027,
    "lng": -88.99368729999999,
    "alt": 243
  },
  {
    "name": "Avondale",
    "lat": 33.4355977,
    "lng": -112.3496021,
    "alt": 296
  },
  {
    "name": "Somerville",
    "lat": 42.3875968,
    "lng": -71.0994968,
    "alt": 28
  },
  {
    "name": "Bryan",
    "lat": 30.6743643,
    "lng": -96.3699632,
    "alt": 113
  },
  {
    "name": "Gary",
    "lat": 41.5933696,
    "lng": -87.3464271,
    "alt": 182
  },
  {
    "name": "Largo",
    "lat": 27.9094665,
    "lng": -82.7873244,
    "alt": 10
  },
  {
    "name": "Brooklyn Park",
    "lat": 45.0941315,
    "lng": -93.3563405,
    "alt": 266
  },
  {
    "name": "Tustin",
    "lat": 33.7458511,
    "lng": -117.826166,
    "alt": 42
  },
  {
    "name": "Deerfield Beach",
    "lat": 26.3184123,
    "lng": -80.09976569999999,
    "alt": 3
  },
  {
    "name": "Lynchburg",
    "lat": 37.4137536,
    "lng": -79.14224639999999,
    "alt": 190
  },
  {
    "name": "Mountain View",
    "lat": 37.3860517,
    "lng": -122.0838511,
    "alt": 31
  },
  {
    "name": "Medford",
    "lat": 42.3265152,
    "lng": -122.8755949,
    "alt": 421
  },
  {
    "name": "Lawrence",
    "lat": 42.7070354,
    "lng": -71.1631137,
    "alt": 12
  },
  {
    "name": "Bellflower",
    "lat": 33.8816818,
    "lng": -118.1170117,
    "alt": 22
  },
  {
    "name": "Melbourne",
    "lat": 28.0836269,
    "lng": -80.60810889999999,
    "alt": 5
  },
  {
    "name": "St. Joseph",
    "lat": 39.7674578,
    "lng": -94.84668099999999,
    "alt": 272
  },
  {
    "name": "Camden",
    "lat": 39.9259463,
    "lng": -75.1196199,
    "alt": 5
  },
  {
    "name": "St. George",
    "lat": 37.0965278,
    "lng": -113.5684164,
    "alt": 802
  },
  {
    "name": "Kennewick",
    "lat": 46.2112458,
    "lng": -119.1372338,
    "alt": 125
  },
  {
    "name": "Baldwin Park",
    "lat": 34.0852868,
    "lng": -117.9608978,
    "alt": 113
  },
  {
    "name": "Chino Hills",
    "lat": 33.9898188,
    "lng": -117.7325848,
    "alt": 211
  },
  {
    "name": "Alameda",
    "lat": 37.7652065,
    "lng": -122.2416355,
    "alt": 9
  },
  {
    "name": "Albany",
    "lat": 31.5785074,
    "lng": -84.15574099999999,
    "alt": 60
  },
  {
    "name": "Arlington Heights",
    "lat": 42.0883603,
    "lng": -87.98062650000001,
    "alt": 213
  },
  {
    "name": "Scranton",
    "lat": 41.408969,
    "lng": -75.66241219999999,
    "alt": 229
  },
  {
    "name": "Evanston",
    "lat": 42.0450722,
    "lng": -87.68769689999999,
    "alt": 184
  },
  {
    "name": "Kalamazoo",
    "lat": 42.2917069,
    "lng": -85.5872286,
    "alt": 238
  },
  {
    "name": "Baytown",
    "lat": 29.7355047,
    "lng": -94.97742740000001,
    "alt": 7
  },
  {
    "name": "Upland",
    "lat": 34.09751,
    "lng": -117.6483876,
    "alt": 376
  },
  {
    "name": "Springdale",
    "lat": 36.18674420000001,
    "lng": -94.1288141,
    "alt": 402
  },
  {
    "name": "Bethlehem",
    "lat": 40.6259316,
    "lng": -75.37045789999999,
    "alt": 108
  },
  {
    "name": "Schaumburg",
    "lat": 42.0333607,
    "lng": -88.0834059,
    "alt": 241
  },
  {
    "name": "Mount Pleasant",
    "lat": 32.8323225,
    "lng": -79.82842579999999,
    "alt": 5
  },
  {
    "name": "Auburn",
    "lat": 47.30732279999999,
    "lng": -122.2284532,
    "alt": 25
  },
  {
    "name": "Decatur",
    "lat": 39.8403147,
    "lng": -88.9548001,
    "alt": 204
  },
  {
    "name": "San Ramon",
    "lat": 37.7799273,
    "lng": -121.9780153,
    "alt": 147
  },
  {
    "name": "Pleasanton",
    "lat": 37.6624312,
    "lng": -121.8746789,
    "alt": 105
  },
  {
    "name": "Wyoming",
    "lat": 42.9133602,
    "lng": -85.7053085,
    "alt": 197
  },
  {
    "name": "Lake Charles",
    "lat": 30.2265949,
    "lng": -93.2173758,
    "alt": 4
  },
  {
    "name": "Plymouth",
    "lat": 45.0105194,
    "lng": -93.4555093,
    "alt": 297
  },
  {
    "name": "Bolingbrook",
    "lat": 41.69864159999999,
    "lng": -88.0683955,
    "alt": 214
  },
  {
    "name": "Pharr",
    "lat": 26.1947962,
    "lng": -98.1836216,
    "alt": 33
  },
  {
    "name": "Appleton",
    "lat": 44.2619309,
    "lng": -88.41538469999999,
    "alt": 241
  },
  {
    "name": "Gastonia",
    "lat": 35.262082,
    "lng": -81.18730049999999,
    "alt": 245
  }
]